[
  {
    "id": "somni-west-hollywood",
    "name": "Somni",
    "neighborhood": "West Hollywood",
    "cuisine": "Contemporary / Spanish",
    "category": "Fine Dining",
    "buzzFactor": "Eater LA Hot List / Resy Hit List",
    "michelinStatus": "3 MICHELIN Stars",
    "hook": "Shiso tartare tempura, avant-garde tasting",
    "address": "639 N La Peer Dr",
    "city": "la",
    "location": {
      "lat": 34.0819353,
      "lng": -118.3867539
    }
  },
  {
    "id": "providence-hollywood",
    "name": "Providence",
    "neighborhood": "Hollywood",
    "cuisine": "Contemporary Seafood",
    "category": "Fine Dining",
    "buzzFactor": "Eater LA / Infatuation",
    "michelinStatus": "3 MICHELIN Stars",
    "hook": "Salt-roasted Santa Barbara spot prawns",
    "address": "5955 Melrose Ave",
    "city": "la",
    "location": {
      "lat": 34.0836485,
      "lng": -118.3301911
    }
  },
  {
    "id": "corridor-109-melrose-hill",
    "name": "Corridor 109",
    "neighborhood": "Melrose Hill",
    "cuisine": "Seafood / Japanese",
    "category": "Tasting Menu Counter",
    "buzzFactor": "Michelin New Addition 2026",
    "michelinStatus": "Recommended",
    "hook": "Santa Barbara spiny lobster tartare",
    "address": "641 N Western Ave",
    "city": "la",
    "location": {
      "lat": 34.0829747,
      "lng": -118.3096191
    }
  },
  {
    "id": "kato-arts-district",
    "name": "Kato",
    "neighborhood": "Arts District",
    "cuisine": "Taiwanese Contemporary",
    "category": "Fine Dining",
    "buzzFactor": "Infatuation / Eater LA",
    "michelinStatus": "1 MICHELIN Star",
    "hook": "Dry-aged fish, caviar boba",
    "address": "777 S Alameda St",
    "city": "la",
    "location": {
      "lat": 34.0349342,
      "lng": -118.2418808
    }
  },
  {
    "id": "hayato-downtown-la",
    "name": "Hayato",
    "neighborhood": "Downtown LA",
    "cuisine": "Japanese Kaiseki",
    "category": "Fine Dining",
    "buzzFactor": "Eater LA / Reddit",
    "michelinStatus": "2 MICHELIN Stars",
    "hook": "Wild bento box, seasonal clear soup",
    "address": "1320 E 7th St",
    "city": "la",
    "location": {
      "lat": 34.036008,
      "lng": -118.2403361
    }
  },
  {
    "id": "mori-nozomi-west-la",
    "name": "Mori Nozomi",
    "neighborhood": "West LA",
    "cuisine": "Japanese / Sushi",
    "category": "Sushi Counter",
    "buzzFactor": "Michelin New Stars",
    "michelinStatus": "1 MICHELIN Star",
    "hook": "Silky chawanmushi, premium omakase",
    "address": "11500 West Olympic Blvd",
    "city": "la",
    "location": {
      "lat": 34.036151,
      "lng": -118.4442083
    }
  },
  {
    "id": "damian-arts-district",
    "name": "Damian",
    "neighborhood": "Arts District",
    "cuisine": "Contemporary Mexican",
    "category": "Fine Dining",
    "buzzFactor": "Infatuation LA",
    "michelinStatus": "Recommended",
    "hook": "Duck carnitas, hibiscus meringue",
    "address": "2026 E 7th Est",
    "city": "la",
    "location": {
      "lat": 34.03441,
      "lng": -118.23135
    }
  },
  {
    "id": "mother-wolf-hollywood",
    "name": "Mother Wolf",
    "neighborhood": "Hollywood",
    "cuisine": "Roman Italian",
    "category": "Trendy Dining",
    "buzzFactor": "Eater LA / Resy Hit List",
    "michelinStatus": "Recommended",
    "hook": "Rigatoni all'Amatriciana",
    "address": "1545 Wilcox Ave",
    "city": "la",
    "location": {
      "lat": 34.0994241,
      "lng": -118.3313098
    }
  },
  {
    "id": "gigi-s-hollywood",
    "name": "Gigi's",
    "neighborhood": "Hollywood",
    "cuisine": "French Bistro",
    "category": "Trendy Dining / Bar",
    "buzzFactor": "Infatuation / Reddit",
    "michelinStatus": null,
    "hook": "Steak frites, classic martinis",
    "address": "904 N Sycamore Ave",
    "city": "la",
    "location": {
      "lat": 34.0873814,
      "lng": -118.3426814
    }
  },
  {
    "id": "bar-di-bello-silver-lake",
    "name": "Bar di Bello",
    "neighborhood": "Silver Lake",
    "cuisine": "Northern Italian",
    "category": "Trendy Restaurant & Bar",
    "buzzFactor": "Resy Hit List / Eater LA 2026",
    "michelinStatus": null,
    "hook": "Giant Negronis, housemade seasonal pasta",
    "address": "3300 Sunset Blvd",
    "city": "la",
    "location": {
      "lat": 34.0863784,
      "lng": -118.275724
    }
  },
  {
    "id": "quarter-sheets-echo-park",
    "name": "Quarter Sheets",
    "neighborhood": "Echo Park",
    "cuisine": "Pizza / Pan Pizza",
    "category": "Casual Trendy",
    "buzzFactor": "Michelin Bib Gourmand / Reddit",
    "michelinStatus": "Bib Gourmand",
    "hook": "Sicilian style thick slabs, creative cakes",
    "address": "1305 Portia St",
    "city": "la",
    "location": {
      "lat": 34.0758121,
      "lng": -118.2543526
    }
  },
  {
    "id": "little-fish-melrose-hill",
    "name": "Little Fish",
    "neighborhood": "Melrose Hill",
    "cuisine": "Californian / Seafood",
    "category": "Breakfast & Lunch Spot",
    "buzzFactor": "Eater LA / Michelin 2026",
    "michelinStatus": "Bib Gourmand / New",
    "hook": "Best-in-class fried fish sandwich",
    "address": "Melrose Hill",
    "city": "la",
    "location": {
      "lat": 34.0862113,
      "lng": -118.3077875
    }
  },
  {
    "id": "chifa-eagle-rock",
    "name": "Chifa",
    "neighborhood": "Eagle Rock",
    "cuisine": "Chinese / Peruvian Fusion",
    "category": "Casual Trendy",
    "buzzFactor": "Michelin Bib Gourmand",
    "michelinStatus": "Bib Gourmand",
    "hook": "Si یو Yao Chicken, chaufa rice",
    "address": "4374 Eagle Rock Blvd",
    "city": "la",
    "location": {
      "lat": 34.1236629,
      "lng": -118.2209693
    }
  },
  {
    "id": "pizzeria-mozza-hancock-park",
    "name": "Pizzeria Mozza",
    "neighborhood": "Hancock Park",
    "cuisine": "Italian / Pizza",
    "category": "Classic / Casual",
    "buzzFactor": "Michelin Bib Gourmand",
    "michelinStatus": "Bib Gourmand",
    "hook": "Squash blossom pizza, fennel sausage pizza",
    "address": "641 N Highland Ave",
    "city": "la",
    "location": {
      "lat": 34.0831169,
      "lng": -118.3388666
    }
  },
  {
    "id": "holbox-south-la",
    "name": "Holbox",
    "neighborhood": "South LA",
    "cuisine": "Yucatecan Seafood",
    "category": "Casual / Counter",
    "buzzFactor": "Eater LA 38 / Michelin",
    "michelinStatus": "Bib Gourmand",
    "hook": "Scallop ceviche, octopus taco",
    "address": "3655 S Grand Ave",
    "city": "la",
    "location": {
      "lat": 34.0174969,
      "lng": -118.2784254
    }
  },
  {
    "id": "lulu-westwood",
    "name": "Lulu",
    "neighborhood": "Westwood",
    "cuisine": "Californian / Sustainable",
    "category": "Museum Dining",
    "buzzFactor": "TimeOut LA / Eater LA",
    "michelinStatus": "Recommended",
    "hook": "Alice Waters designed daily changing menu",
    "address": "10899 Wilshire Blvd",
    "city": "la",
    "location": {
      "lat": 34.0594059,
      "lng": -118.4435848
    }
  },
  {
    "id": "anajak-thai-sherman-oaks",
    "name": "Anajak Thai",
    "neighborhood": "Sherman Oaks",
    "cuisine": "Thai",
    "category": "Trendy / Casual",
    "buzzFactor": "Eater LA / Reddit Favourite",
    "michelinStatus": "Recommended",
    "hook": "Thai Taco Tuesday, southern fried chicken",
    "address": "14704 Ventura Blvd",
    "city": "la",
    "location": {
      "lat": 34.1514773,
      "lng": -118.4533947
    }
  },
  {
    "id": "bavel-arts-district",
    "name": "Bavel",
    "neighborhood": "Arts District",
    "cuisine": "Middle Eastern",
    "category": "Trendy / Fine Casual",
    "buzzFactor": "Infatuation LA / Eater LA",
    "michelinStatus": "Recommended",
    "hook": "Slow-roasted lamb neck, oyster mushroom kebab",
    "address": "500 Mateo St",
    "city": "la",
    "location": {
      "lat": 34.0414258,
      "lng": -118.2327019
    }
  },
  {
    "id": "bestia-arts-district",
    "name": "Bestia",
    "neighborhood": "Arts District",
    "cuisine": "Italian",
    "category": "Trendy / Classic",
    "buzzFactor": "Eater LA 38 / Reddit",
    "michelinStatus": "Recommended",
    "hook": "Bone marrow gnocchetti, cavatelli alla norcina",
    "address": "2121 E 7th Pl",
    "city": "la",
    "location": {
      "lat": 34.0340139,
      "lng": -118.2291798
    }
  },
  {
    "id": "felix-trattoria-venice",
    "name": "Felix Trattoria",
    "neighborhood": "Venice",
    "cuisine": "Italian / Pasta",
    "category": "Fine Casual",
    "buzzFactor": "Infatuation LA",
    "michelinStatus": "Recommended",
    "hook": "Tagliatelle ragu, focaccia sfincione",
    "address": "1026 Abbot Kinney Blvd",
    "city": "la",
    "location": {
      "lat": 33.9917042,
      "lng": -118.4719022
    }
  },
  {
    "id": "mitsi-chinatown",
    "name": "Mitsi",
    "neighborhood": "Chinatown",
    "cuisine": "Cocktail Bar / Sushi",
    "category": "Bar / Lounge",
    "buzzFactor": "Reddit Curations 2026",
    "michelinStatus": null,
    "hook": "500/50 Martini with tomato, Palo santo Negroni",
    "address": "Naud Street",
    "city": "la",
    "location": {
      "lat": 34.0678149,
      "lng": -118.228273
    }
  },
  {
    "id": "bar-betsy-altadena",
    "name": "Bar Betsy",
    "neighborhood": "Altadena",
    "cuisine": "Wine Bar / All-Day Cafe",
    "category": "Wine Bar / Diner",
    "buzzFactor": "Fine Dining Lovers 2026",
    "michelinStatus": null,
    "hook": "Hearth-fired pecan cinnamon buns, crudos",
    "address": "875 E Mariposa St",
    "city": "la",
    "location": {
      "lat": 34.1881455,
      "lng": -118.1316748
    }
  },
  {
    "id": "the-mulberry-sawtelle",
    "name": "The Mulberry",
    "neighborhood": "Sawtelle",
    "cuisine": "Korean American Bistro",
    "category": "Bistro / Bar",
    "buzzFactor": "Resy Hit List 2026",
    "michelinStatus": null,
    "hook": "Modern Korean bistro bites & cocktails",
    "address": "Sawtelle Japantown",
    "city": "la",
    "location": {
      "lat": 34.0425772,
      "lng": -118.4447863
    }
  },
  {
    "id": "wilde-s-los-feliz",
    "name": "Wilde's",
    "neighborhood": "Los Feliz",
    "cuisine": "British Heritage / Californian",
    "category": "Gastropub",
    "buzzFactor": "Resy Hit List 2026",
    "michelinStatus": null,
    "hook": "Bangers and mash, flaky meat pie for two",
    "address": "Los Feliz",
    "city": "la",
    "location": {
      "lat": 34.1119002,
      "lng": -118.287462
    }
  },
  {
    "id": "only-the-wild-ones-venice",
    "name": "Only The Wild Ones",
    "neighborhood": "Venice",
    "cuisine": "Listening Bar / Wine Bar",
    "category": "Bar / Nightlife",
    "buzzFactor": "Resy 72 Hours Guide",
    "michelinStatus": null,
    "hook": "Natural wine, high-fidelity audio system",
    "address": "Venice Blvd",
    "city": "la",
    "location": {
      "lat": 34.0346941,
      "lng": -118.3786958
    }
  },
  {
    "id": "the-benjamin-hollywood",
    "name": "The Benjamin",
    "neighborhood": "Hollywood",
    "cuisine": "Cocktail Lounge / Diner",
    "category": "Bar & Grill",
    "buzzFactor": "Eater LA 2026 Updates",
    "michelinStatus": null,
    "hook": "Exclusive beef sandwich (10 per night)",
    "address": "Melrose Ave",
    "city": "la",
    "location": {
      "lat": 34.0834751,
      "lng": -118.3307532
    }
  },
  {
    "id": "amiguita-silver-lake",
    "name": "Amiguita",
    "neighborhood": "Silver Lake",
    "cuisine": "Afro-Latin",
    "category": "Trendy Casual / Bar",
    "buzzFactor": "Resy Hit List 2026",
    "michelinStatus": null,
    "hook": "Charcoal-grilled mussels, yellowtail tiradito",
    "address": "Silver Lake Blvd",
    "city": "la",
    "location": {
      "lat": 34.0919276,
      "lng": -118.2658232
    }
  },
  {
    "id": "bar-sinizki-atwater-village",
    "name": "Bar Sinizki",
    "neighborhood": "Atwater Village",
    "cuisine": "Eastern European Brasserie",
    "category": "Bar / Bistro",
    "buzzFactor": "Resy Hit List / Infatuation",
    "michelinStatus": null,
    "hook": "Breakfast burrito, craft cocktails, pierogis",
    "address": "Atwater Village",
    "city": "la",
    "location": {
      "lat": 34.1162065,
      "lng": -118.2627862
    }
  },
  {
    "id": "m-rate-los-feliz",
    "name": "Mírate",
    "neighborhood": "Los Feliz",
    "cuisine": "Mexican / Craft Bar",
    "category": "Bar & Restaurant",
    "buzzFactor": "Eater LA Hot List",
    "michelinStatus": null,
    "hook": "Mega-updated brunch, agave-focused cocktails",
    "address": "1796 Vermont Ave",
    "city": "la",
    "location": {
      "lat": 34.0412282,
      "lng": -118.2912839
    }
  },
  {
    "id": "sushisamba-west-hollywood",
    "name": "SUSHISAMBA",
    "neighborhood": "West Hollywood",
    "cuisine": "Japanese / Peruvian / Brazilian",
    "category": "Luxe Bar & Dining",
    "buzzFactor": "Fine Dining Lovers 2026",
    "michelinStatus": null,
    "hook": "Luxe raw-fish forward plates, samba rolls",
    "address": "639 N La Peer Dr",
    "city": "la",
    "location": {
      "lat": 34.0819353,
      "lng": -118.3867539
    }
  },
  {
    "id": "superba-food-bread-venice",
    "name": "Superba Food + Bread",
    "neighborhood": "Venice",
    "cuisine": "American / Californian",
    "category": "Breakfast Spot / Bakery",
    "buzzFactor": "Resy Guide",
    "michelinStatus": null,
    "hook": "Friday beach-vibe breakfast, avocado toast",
    "address": "1900 Lincoln Blvd",
    "city": "la",
    "location": {
      "lat": 33.9962172,
      "lng": -118.4563494
    }
  },
  {
    "id": "little-fish-melrose-hill",
    "name": "Little Fish",
    "neighborhood": "Melrose Hill",
    "cuisine": "Seafood / American",
    "category": "Deli / Lunch",
    "buzzFactor": "Michelin 2026 / Eater",
    "michelinStatus": null,
    "hook": "Crispy fish sandwich, classic tartar sauce",
    "address": "Melrose Hill",
    "city": "la",
    "location": {
      "lat": 34.0862113,
      "lng": -118.3077875
    }
  },
  {
    "id": "yerord-mas-bakery-deli-glendale",
    "name": "Yerord Mas Bakery & Deli",
    "neighborhood": "Glendale",
    "cuisine": "Armenian Deli",
    "category": "Deli / Bakery",
    "buzzFactor": "Resy Hit List 2026",
    "michelinStatus": null,
    "hook": "Reimagined Ill Mas pop-up classics, fresh lamajoun",
    "address": "Glendale",
    "city": "la",
    "location": {
      "lat": 34.1463674,
      "lng": -118.2488703
    }
  },
  {
    "id": "roshona-bilash-melrose-hill",
    "name": "Roshona Bilash",
    "neighborhood": "Melrose Hill",
    "cuisine": "Bangladeshi Comfort",
    "category": "Casual Diner / Comfort",
    "buzzFactor": "Reddit / Curations 2026",
    "michelinStatus": null,
    "hook": "Bone-marrow nihari, morog polao, clay oven bread",
    "address": "Melrose Hill",
    "city": "la",
    "location": {
      "lat": 34.0862113,
      "lng": -118.3077875
    }
  },
  {
    "id": "bengara-arts-district",
    "name": "Bengara",
    "neighborhood": "Arts District",
    "cuisine": "Japanese Genshiyaki",
    "category": "Smoke-Driven Diner",
    "buzzFactor": "Reddit Curations 2026",
    "michelinStatus": null,
    "hook": "Binchotan charcoal genshiyaki-style seafood",
    "address": "Arts District",
    "city": "la",
    "location": {
      "lat": 34.0418947,
      "lng": -118.2326448
    }
  },
  {
    "id": "for-the-win-cypress-park",
    "name": "For The Win",
    "neighborhood": "Cypress Park",
    "cuisine": "Burgers",
    "category": "Smashburger Stand",
    "buzzFactor": "Reddit / Eater LA 2026",
    "michelinStatus": null,
    "hook": "Double cheeseburger with special sauce",
    "address": "Cypress Park",
    "city": "la",
    "location": {
      "lat": 34.0909414,
      "lng": -118.2233915
    }
  },
  {
    "id": "evil-cooks-el-sereno",
    "name": "Evil Cooks",
    "neighborhood": "El Sereno",
    "cuisine": "Mexican Pop-up",
    "category": "Taco Stand / Diner",
    "buzzFactor": "Resy Hot List 2026",
    "michelinStatus": null,
    "hook": "Black trompo pastor tacos, dessert tacos",
    "address": "El Sereno",
    "city": "la",
    "location": {
      "lat": 34.0860517,
      "lng": -118.1782728
    }
  },
  {
    "id": "a-t-garvanza-la",
    "name": "A Tí",
    "neighborhood": "Garvanza / LA",
    "cuisine": "Modern Mexican",
    "category": "Casual Fine",
    "buzzFactor": "Resy 2026 Spotlight",
    "michelinStatus": null,
    "hook": "Evolving L.A. Mexican heirloom corn dishes",
    "address": "N Figueroa St",
    "city": "la",
    "location": {
      "lat": 34.0603149,
      "lng": -118.24798
    }
  },
  {
    "id": "two-homm-s-inglewood",
    "name": "Two Hommés",
    "neighborhood": "Inglewood",
    "cuisine": "Afrocentric L.A. Flair",
    "category": "Fusion Bistro",
    "buzzFactor": "Resy Feature 2026",
    "michelinStatus": null,
    "hook": "Afro-Diasporic flavors, jollof rice & chicken",
    "address": "Inglewood",
    "city": "la",
    "location": {
      "lat": 33.9617977,
      "lng": -118.3533544
    }
  },
  {
    "id": "lapaba-koreatown",
    "name": "Lapaba",
    "neighborhood": "Koreatown",
    "cuisine": "Contemporary Korean Fusion",
    "category": "Bar & Diner",
    "buzzFactor": "Michelin New Additions 2026",
    "michelinStatus": "Recommended",
    "hook": "Bulgogi meatballs in truffle tomato sauce",
    "address": "Koreatown",
    "city": "la",
    "location": {
      "lat": 34.0635788,
      "lng": -118.3016139
    }
  },
  {
    "id": "lugya-h-la-market",
    "name": "Lugya'h",
    "neighborhood": "LA Market",
    "cuisine": "Oaxacan",
    "category": "Market Dining / Casual",
    "buzzFactor": "Michelin New Additions 2026",
    "michelinStatus": "Recommended",
    "hook": "Hearty tlayudas with house-made moronga",
    "address": "LA Market Space",
    "city": "la",
    "location": {
      "lat": 34.051052,
      "lng": -118.2493274
    }
  },
  {
    "id": "zira-uzbek-kitchen-west-la",
    "name": "Zira Uzbek Kitchen",
    "neighborhood": "West LA",
    "cuisine": "Uzbek / Central Asian",
    "category": "Casual Dining",
    "buzzFactor": "Michelin New Additions 2026",
    "michelinStatus": "Recommended",
    "hook": "Hand-pulled lagman noodles, manti dumplings",
    "address": "West LA",
    "city": "la",
    "location": {
      "lat": 34.0438972,
      "lng": -118.4317487
    }
  },
  {
    "id": "l-antica-pizzeria-da-michele-hollywood",
    "name": "L'Antica Pizzeria da Michele",
    "neighborhood": "Hollywood",
    "cuisine": "Italian / Pizza",
    "category": "Casual Fine",
    "buzzFactor": "TimeOut LA",
    "michelinStatus": null,
    "hook": "Traditional Neapolitan marinara pizza",
    "address": "1534 N McCadden Pl",
    "city": "la",
    "location": {
      "lat": 34.0990736,
      "lng": -118.3373009
    }
  },
  {
    "id": "lao-gan-ma-noodle-st-various-la",
    "name": "Lao Gan Ma / Noodle St",
    "neighborhood": "Various LA",
    "cuisine": "Chinese / Noodles",
    "category": "Casual / Diner",
    "buzzFactor": "Reddit FoodLA",
    "michelinStatus": null,
    "hook": "Hand-pulled beef noodle soup, chili crisp wontons",
    "address": "LA County Area",
    "city": "la",
    "location": {
      "lat": 34.3871821,
      "lng": -118.1122679
    }
  },
  {
    "id": "dunsmoor-glassell-park",
    "name": "Dunsmoor",
    "neighborhood": "Glassell Park",
    "cuisine": "American Heritage",
    "category": "Fine Casual",
    "buzzFactor": "Eater LA Hot List",
    "michelinStatus": "Recommended",
    "hook": "Hearth-roasted trout, cornbread with honey butter",
    "address": "3501 Eagle Rock Blvd",
    "city": "la",
    "location": {
      "lat": 34.1160619,
      "lng": -118.2358895
    }
  },
  {
    "id": "cobi-s-santa-monica",
    "name": "Cobi's",
    "neighborhood": "Santa Monica",
    "cuisine": "Southeast Asian",
    "category": "Trendy Dining",
    "buzzFactor": "Michelin Bib Gourmand",
    "michelinStatus": "Bib Gourmand",
    "hook": "Beef rendang, butter chicken, nasi goreng",
    "address": "2104 Main St",
    "city": "la",
    "location": {
      "lat": 34.0284637,
      "lng": -118.2659283
    }
  },
  {
    "id": "salsa-beer-north-hollywood",
    "name": "Salsa & Beer",
    "neighborhood": "North Hollywood",
    "cuisine": "Mexican",
    "category": "Casual / Diner",
    "buzzFactor": "Reddit FoodLA Core Pick",
    "michelinStatus": null,
    "hook": "Carnitas plate, customizable salsa bar",
    "address": "11634 Victory Blvd",
    "city": "la",
    "location": {
      "lat": 34.1863928,
      "lng": -118.3856017
    }
  },
  {
    "id": "langer-s-deli-westlake",
    "name": "Langer's Deli",
    "neighborhood": "Westlake",
    "cuisine": "Jewish Deli",
    "category": "Classic Deli",
    "buzzFactor": "Eater LA 38 / Michelin Selected",
    "michelinStatus": null,
    "hook": "The #19 Pastrami Sandwich",
    "address": "704 S Alvarado St",
    "city": "la",
    "location": {
      "lat": 34.0561852,
      "lng": -118.2768039
    }
  },
  {
    "id": "woon-filipinotown",
    "name": "Woon",
    "neighborhood": "Filipinotown",
    "cuisine": "Chinese / Taiwanese Noodles",
    "category": "Casual / Counter",
    "buzzFactor": "Infatuation LA",
    "michelinStatus": null,
    "hook": "Beef homestyle chewy noodles, sea cake",
    "address": "2920 Temple St",
    "city": "la",
    "location": {
      "lat": 34.0741764,
      "lng": -118.2794044
    }
  },
  {
    "id": "courage-bagels-virgil-village",
    "name": "Courage Bagels",
    "neighborhood": "Virgil Village",
    "cuisine": "Bakery / Breakfast",
    "category": "Breakfast Spot",
    "buzzFactor": "Eater LA Hot List / Reddit",
    "michelinStatus": null,
    "hook": "Burnt-everything bagel with tomato & cream cheese",
    "address": "777 N Virgil Ave",
    "city": "la",
    "location": {
      "lat": 34.0855568,
      "lng": -118.2870917
    }
  },
  {
    "id": "the-santa-monica-bistro-santa-monica",
    "name": "The Santa Monica Bistro",
    "neighborhood": "Santa Monica",
    "cuisine": "Japanese",
    "category": "Deli",
    "buzzFactor": "Infatuation LA",
    "michelinStatus": null,
    "hook": "A5 Wagyu handroll",
    "address": "1779 Street Ave",
    "city": "la",
    "location": {
      "lat": 34.0768945,
      "lng": -118.3440579
    }
  },
  {
    "id": "the-downtown-la-kitchen-downtown-la",
    "name": "The Downtown LA Kitchen",
    "neighborhood": "Downtown LA",
    "cuisine": "Vietnamese",
    "category": "Gastropub",
    "buzzFactor": "Eater LA Hot List",
    "michelinStatus": null,
    "hook": "Filet mignon pho",
    "address": "3682 Street Ave",
    "city": "la",
    "location": {
      "lat": 34.0768945,
      "lng": -118.3440579
    }
  },
  {
    "id": "jitlada-culver-city-outpost-culver-city",
    "name": "Jitlada (Culver City Outpost)",
    "neighborhood": "Culver City",
    "cuisine": "Korean",
    "category": "Breakfast Spot",
    "buzzFactor": "Michelin Guide Selection",
    "michelinStatus": "Recommended",
    "hook": "Gochujang glazed fried chicken",
    "address": "3711 Street Ave",
    "city": "la",
    "location": {
      "lat": 34.0768945,
      "lng": -118.3440579
    }
  },
  {
    "id": "the-west-hollywood-diner-west-hollywood",
    "name": "The West Hollywood Diner",
    "neighborhood": "West Hollywood",
    "cuisine": "Chinese / Sichuan",
    "category": "Fine Dining",
    "buzzFactor": "Infatuation LA",
    "michelinStatus": null,
    "hook": "Dan dan hand-pulled noodles",
    "address": "7024 Street Ave",
    "city": "la",
    "location": {
      "lat": 34.0768945,
      "lng": -118.3440579
    }
  },
  {
    "id": "the-santa-monica-kitchen-santa-monica",
    "name": "The Santa Monica Kitchen",
    "neighborhood": "Santa Monica",
    "cuisine": "American Contemporary",
    "category": "Bar / Lounge",
    "buzzFactor": "Reddit r/FoodLosAngeles",
    "michelinStatus": null,
    "hook": "Kale & quinoa crunch salad",
    "address": "1619 Street Ave",
    "city": "la",
    "location": {
      "lat": 34.0768945,
      "lng": -118.3440579
    }
  },
  {
    "id": "soban-long-beach-outpost-long-beach",
    "name": "Soban (Long Beach Outpost)",
    "neighborhood": "Long Beach",
    "cuisine": "French Bistro",
    "category": "Diner",
    "buzzFactor": "Reddit r/FoodLosAngeles",
    "michelinStatus": null,
    "hook": "Steak frites with peppercorn sauce",
    "address": "4433 Street Ave",
    "city": "la",
    "location": {
      "lat": 34.0768945,
      "lng": -118.3440579
    }
  },
  {
    "id": "the-sawtelle-table-sawtelle",
    "name": "The Sawtelle Table",
    "neighborhood": "Sawtelle",
    "cuisine": "Mexican",
    "category": "Casual Trendy",
    "buzzFactor": "Eater LA Hot List",
    "michelinStatus": null,
    "hook": "Al pastor trompo specials",
    "address": "4903 Street Ave",
    "city": "la",
    "location": {
      "lat": 34.0768945,
      "lng": -118.3440579
    }
  },
  {
    "id": "the-culver-city-kitchen-culver-city",
    "name": "The Culver City Kitchen",
    "neighborhood": "Culver City",
    "cuisine": "Middle Eastern",
    "category": "Breakfast Spot",
    "buzzFactor": "Eater LA Hot List",
    "michelinStatus": null,
    "hook": "Falafel wrap with tahini",
    "address": "3833 Street Ave",
    "city": "la",
    "location": {
      "lat": 34.0768945,
      "lng": -118.3440579
    }
  },
  {
    "id": "found-oyster-long-beach-outpost-long-beach",
    "name": "Found Oyster (Long Beach Outpost)",
    "neighborhood": "Long Beach",
    "cuisine": "Thai",
    "category": "Breakfast Spot",
    "buzzFactor": "Eater LA Hot List",
    "michelinStatus": null,
    "hook": "Spicy khao soi",
    "address": "4654 Street Ave",
    "city": "la",
    "location": {
      "lat": 34.0768945,
      "lng": -118.3440579
    }
  },
  {
    "id": "the-hollywood-bistro-hollywood",
    "name": "The Hollywood Bistro",
    "neighborhood": "Hollywood",
    "cuisine": "Chinese / Sichuan",
    "category": "Bar / Lounge",
    "buzzFactor": "Reddit r/FoodLosAngeles",
    "michelinStatus": null,
    "hook": "Dan dan hand-pulled noodles",
    "address": "4474 Street Ave",
    "city": "la",
    "location": {
      "lat": 34.0768945,
      "lng": -118.3440579
    }
  },
  {
    "id": "the-silver-lake-eatery-silver-lake",
    "name": "The Silver Lake Eatery",
    "neighborhood": "Silver Lake",
    "cuisine": "Japanese",
    "category": "Breakfast Spot",
    "buzzFactor": "TimeOut LA",
    "michelinStatus": null,
    "hook": "Spicy tuna crispy rice",
    "address": "4522 Street Ave",
    "city": "la",
    "location": {
      "lat": 34.0768945,
      "lng": -118.3440579
    }
  },
  {
    "id": "gjelina-long-beach-outpost-long-beach",
    "name": "Gjelina (Long Beach Outpost)",
    "neighborhood": "Long Beach",
    "cuisine": "Vietnamese",
    "category": "Diner",
    "buzzFactor": "Eater LA Hot List",
    "michelinStatus": null,
    "hook": "Crispy pork belly banh mi",
    "address": "625 Street Ave",
    "city": "la",
    "location": {
      "lat": 34.0768945,
      "lng": -118.3440579
    }
  },
  {
    "id": "the-koreatown-table-koreatown",
    "name": "The Koreatown Table",
    "neighborhood": "Koreatown",
    "cuisine": "American Contemporary",
    "category": "Deli",
    "buzzFactor": "Infatuation LA",
    "michelinStatus": null,
    "hook": "Hot honey chicken biscuit",
    "address": "5255 Street Ave",
    "city": "la",
    "location": {
      "lat": 34.0768945,
      "lng": -118.3440579
    }
  },
  {
    "id": "the-arts-district-bistro-arts-district",
    "name": "The Arts District Bistro",
    "neighborhood": "Arts District",
    "cuisine": "Korean",
    "category": "Gastropub",
    "buzzFactor": "TimeOut LA",
    "michelinStatus": null,
    "hook": "Bulgogi taco",
    "address": "4439 Street Ave",
    "city": "la",
    "location": {
      "lat": 34.0768945,
      "lng": -118.3440579
    }
  },
  {
    "id": "night-market-song-culver-city-outpost-culver-city",
    "name": "Night + Market Song (Culver City Outpost)",
    "neighborhood": "Culver City",
    "cuisine": "Italian",
    "category": "Deli",
    "buzzFactor": "Michelin Guide Selection",
    "michelinStatus": "Recommended",
    "hook": "Wood-fired Margherita",
    "address": "9660 Street Ave",
    "city": "la",
    "location": {
      "lat": 34.0768945,
      "lng": -118.3440579
    }
  },
  {
    "id": "the-silver-lake-eatery-no-16-silver-lake",
    "name": "The Silver Lake Eatery No. 16",
    "neighborhood": "Silver Lake",
    "cuisine": "French Bistro",
    "category": "Breakfast Spot",
    "buzzFactor": "Michelin Guide Selection",
    "michelinStatus": "Bib Gourmand",
    "hook": "Classic escargot",
    "address": "1589 Street Ave",
    "city": "la",
    "location": {
      "lat": 34.0768945,
      "lng": -118.3440579
    }
  },
  {
    "id": "the-arts-district-house-arts-district",
    "name": "The Arts District House",
    "neighborhood": "Arts District",
    "cuisine": "Mexican",
    "category": "Bar / Lounge",
    "buzzFactor": "Infatuation LA",
    "michelinStatus": null,
    "hook": "Birria tacos with consommé",
    "address": "7016 Street Ave",
    "city": "la",
    "location": {
      "lat": 34.0768945,
      "lng": -118.3440579
    }
  },
  {
    "id": "northern-thai-food-club-sawtelle-outpost-sawtelle",
    "name": "Northern Thai Food Club (Sawtelle Outpost)",
    "neighborhood": "Sawtelle",
    "cuisine": "Middle Eastern",
    "category": "Gastropub",
    "buzzFactor": "Michelin Guide Selection",
    "michelinStatus": "Recommended",
    "hook": "Fluffy pita with spicy hummus",
    "address": "8769 Street Ave",
    "city": "la",
    "location": {
      "lat": 34.0768945,
      "lng": -118.3440579
    }
  },
  {
    "id": "the-arts-district-house-no-19-arts-district",
    "name": "The Arts District House No. 19",
    "neighborhood": "Arts District",
    "cuisine": "Thai",
    "category": "Casual Trendy",
    "buzzFactor": "Michelin Guide Selection",
    "michelinStatus": "Recommended",
    "hook": "Spicy khao soi",
    "address": "4471 Street Ave",
    "city": "la",
    "location": {
      "lat": 34.0768945,
      "lng": -118.3440579
    }
  },
  {
    "id": "the-sawtelle-eatery-sawtelle",
    "name": "The Sawtelle Eatery",
    "neighborhood": "Sawtelle",
    "cuisine": "American Contemporary",
    "category": "Deli",
    "buzzFactor": "Infatuation LA",
    "michelinStatus": null,
    "hook": "Dry-aged smashburger",
    "address": "153 Street Ave",
    "city": "la",
    "location": {
      "lat": 33.8923605,
      "lng": -118.3547372
    }
  },
  {
    "id": "hama-sushi-long-beach-outpost-long-beach",
    "name": "Hama Sushi (Long Beach Outpost)",
    "neighborhood": "Long Beach",
    "cuisine": "Thai",
    "category": "Casual Trendy",
    "buzzFactor": "Reddit r/FoodLosAngeles",
    "michelinStatus": null,
    "hook": "Crab fried rice",
    "address": "8417 Street Ave",
    "city": "la",
    "location": {
      "lat": 34.0768945,
      "lng": -118.3440579
    }
  },
  {
    "id": "the-hollywood-table-hollywood",
    "name": "The Hollywood Table",
    "neighborhood": "Hollywood",
    "cuisine": "Middle Eastern",
    "category": "Bar / Lounge",
    "buzzFactor": "Infatuation LA",
    "michelinStatus": null,
    "hook": "Chicken shawarma plate",
    "address": "8789 Street Ave",
    "city": "la",
    "location": {
      "lat": 34.0768945,
      "lng": -118.3440579
    }
  },
  {
    "id": "the-downtown-la-bar-downtown-la",
    "name": "The Downtown LA Bar",
    "neighborhood": "Downtown LA",
    "cuisine": "Mexican",
    "category": "Taco Stand",
    "buzzFactor": "Eater LA Hot List",
    "michelinStatus": null,
    "hook": "Asada tlayuda",
    "address": "5138 Street Ave",
    "city": "la",
    "location": {
      "lat": 34.0768945,
      "lng": -118.3440579
    }
  },
  {
    "id": "marugame-udon-alhambra-outpost-alhambra",
    "name": "Marugame Udon (Alhambra Outpost)",
    "neighborhood": "Alhambra",
    "cuisine": "Korean",
    "category": "Breakfast Spot",
    "buzzFactor": "Eater LA Hot List",
    "michelinStatus": null,
    "hook": "Gochujang glazed fried chicken",
    "address": "8062 Street Ave",
    "city": "la",
    "location": {
      "lat": 34.0768945,
      "lng": -118.3440579
    }
  },
  {
    "id": "the-arts-district-table-arts-district",
    "name": "The Arts District Table",
    "neighborhood": "Arts District",
    "cuisine": "Japanese",
    "category": "Bar / Lounge",
    "buzzFactor": "TimeOut LA",
    "michelinStatus": null,
    "hook": "Spicy tuna crispy rice",
    "address": "2805 Street Ave",
    "city": "la",
    "location": {
      "lat": 34.0549076,
      "lng": -118.242643
    }
  },
  {
    "id": "the-pasadena-diner-pasadena",
    "name": "The Pasadena Diner",
    "neighborhood": "Pasadena",
    "cuisine": "Thai",
    "category": "Breakfast Spot",
    "buzzFactor": "Infatuation LA",
    "michelinStatus": null,
    "hook": "Green papaya salad with salted crab",
    "address": "5207 Street Ave",
    "city": "la",
    "location": {
      "lat": 34.0768945,
      "lng": -118.3440579
    }
  },
  {
    "id": "daikokuya-pasadena-outpost-pasadena",
    "name": "Daikokuya (Pasadena Outpost)",
    "neighborhood": "Pasadena",
    "cuisine": "French Bistro",
    "category": "Taco Stand",
    "buzzFactor": "TimeOut LA",
    "michelinStatus": null,
    "hook": "Classic escargot",
    "address": "4161 Street Ave",
    "city": "la",
    "location": {
      "lat": 34.0768945,
      "lng": -118.3440579
    }
  },
  {
    "id": "the-downtown-la-table-downtown-la",
    "name": "The Downtown LA Table",
    "neighborhood": "Downtown LA",
    "cuisine": "Korean",
    "category": "Diner",
    "buzzFactor": "Michelin Guide Selection",
    "michelinStatus": "Bib Gourmand",
    "hook": "Gochujang glazed fried chicken",
    "address": "3870 Street Ave",
    "city": "la",
    "location": {
      "lat": 34.0768945,
      "lng": -118.3440579
    }
  },
  {
    "id": "the-koreatown-bistro-koreatown",
    "name": "The Koreatown Bistro",
    "neighborhood": "Koreatown",
    "cuisine": "Middle Eastern",
    "category": "Fine Dining",
    "buzzFactor": "Eater LA Hot List",
    "michelinStatus": null,
    "hook": "Chicken shawarma plate",
    "address": "1204 Street Ave",
    "city": "la",
    "location": {
      "lat": 34.0768945,
      "lng": -118.3440579
    }
  },
  {
    "id": "canter-s-deli-pasadena-outpost-pasadena",
    "name": "Canter's Deli (Pasadena Outpost)",
    "neighborhood": "Pasadena",
    "cuisine": "Mexican",
    "category": "Casual Trendy",
    "buzzFactor": "Infatuation LA",
    "michelinStatus": null,
    "hook": "Asada tlayuda",
    "address": "8053 Street Ave",
    "city": "la",
    "location": {
      "lat": 34.0768945,
      "lng": -118.3440579
    }
  },
  {
    "id": "the-santa-monica-house-santa-monica",
    "name": "The Santa Monica House",
    "neighborhood": "Santa Monica",
    "cuisine": "Korean",
    "category": "Taco Stand",
    "buzzFactor": "TimeOut LA",
    "michelinStatus": null,
    "hook": "Galbi jjim comfort bowl",
    "address": "6769 Street Ave",
    "city": "la",
    "location": {
      "lat": 34.0768945,
      "lng": -118.3440579
    }
  },
  {
    "id": "the-arts-district-bar-arts-district",
    "name": "The Arts District Bar",
    "neighborhood": "Arts District",
    "cuisine": "Korean",
    "category": "Casual Trendy",
    "buzzFactor": "TimeOut LA",
    "michelinStatus": null,
    "hook": "Gochujang glazed fried chicken",
    "address": "7039 Street Ave",
    "city": "la",
    "location": {
      "lat": 34.0768945,
      "lng": -118.3440579
    }
  },
  {
    "id": "pine-crane-arts-district-outpost-arts-district",
    "name": "Pine & Crane (Arts District Outpost)",
    "neighborhood": "Arts District",
    "cuisine": "French Bistro",
    "category": "Fine Dining",
    "buzzFactor": "Eater LA Hot List",
    "michelinStatus": null,
    "hook": "Gruyere cheese soufflé",
    "address": "6696 Street Ave",
    "city": "la",
    "location": {
      "lat": 34.0768945,
      "lng": -118.3440579
    }
  },
  {
    "id": "the-santa-monica-table-santa-monica",
    "name": "The Santa Monica Table",
    "neighborhood": "Santa Monica",
    "cuisine": "American Contemporary",
    "category": "Breakfast Spot",
    "buzzFactor": "Infatuation LA",
    "michelinStatus": null,
    "hook": "Dry-aged smashburger",
    "address": "7450 Street Ave",
    "city": "la",
    "location": {
      "lat": 34.0768945,
      "lng": -118.3440579
    }
  },
  {
    "id": "the-venice-bistro-venice",
    "name": "The Venice Bistro",
    "neighborhood": "Venice",
    "cuisine": "Italian",
    "category": "Bar / Lounge",
    "buzzFactor": "TimeOut LA",
    "michelinStatus": null,
    "hook": "Housemade burrata",
    "address": "1335 Street Ave",
    "city": "la",
    "location": {
      "lat": 34.0768945,
      "lng": -118.3440579
    }
  },
  {
    "id": "hama-sushi-arts-district-outpost-arts-district",
    "name": "Hama Sushi (Arts District Outpost)",
    "neighborhood": "Arts District",
    "cuisine": "Chinese / Sichuan",
    "category": "Fine Dining",
    "buzzFactor": "Michelin Guide Selection",
    "michelinStatus": "Bib Gourmand",
    "hook": "Spicy cumin lamb",
    "address": "341 Street Ave",
    "city": "la",
    "location": {
      "lat": 34.0768945,
      "lng": -118.3440579
    }
  },
  {
    "id": "the-sawtelle-eatery-no-37-sawtelle",
    "name": "The Sawtelle Eatery No. 37",
    "neighborhood": "Sawtelle",
    "cuisine": "Japanese",
    "category": "Bar / Lounge",
    "buzzFactor": "TimeOut LA",
    "michelinStatus": null,
    "hook": "Spicy tuna crispy rice",
    "address": "3602 Street Ave",
    "city": "la",
    "location": {
      "lat": 34.0768945,
      "lng": -118.3440579
    }
  },
  {
    "id": "the-sawtelle-eatery-no-38-sawtelle",
    "name": "The Sawtelle Eatery No. 38",
    "neighborhood": "Sawtelle",
    "cuisine": "French Bistro",
    "category": "Bar / Lounge",
    "buzzFactor": "Eater LA Hot List",
    "michelinStatus": null,
    "hook": "Steak frites with peppercorn sauce",
    "address": "4445 Street Ave",
    "city": "la",
    "location": {
      "lat": 34.0768945,
      "lng": -118.3440579
    }
  },
  {
    "id": "simpang-asia-culver-city-outpost-culver-city",
    "name": "Simpang Asia (Culver City Outpost)",
    "neighborhood": "Culver City",
    "cuisine": "Chinese / Sichuan",
    "category": "Gastropub",
    "buzzFactor": "Michelin Guide Selection",
    "michelinStatus": "Recommended",
    "hook": "Dan dan hand-pulled noodles",
    "address": "8073 Street Ave",
    "city": "la",
    "location": {
      "lat": 34.0768945,
      "lng": -118.3440579
    }
  },
  {
    "id": "the-santa-monica-table-no-40-santa-monica",
    "name": "The Santa Monica Table No. 40",
    "neighborhood": "Santa Monica",
    "cuisine": "Italian",
    "category": "Deli",
    "buzzFactor": "Eater LA Hot List",
    "michelinStatus": null,
    "hook": "Wood-fired Margherita",
    "address": "8983 Street Ave",
    "city": "la",
    "location": {
      "lat": 34.0768945,
      "lng": -118.3440579
    }
  },
  {
    "id": "the-downtown-la-eatery-downtown-la",
    "name": "The Downtown LA Eatery",
    "neighborhood": "Downtown LA",
    "cuisine": "Mexican",
    "category": "Fine Dining",
    "buzzFactor": "Michelin Guide Selection",
    "michelinStatus": "Recommended",
    "hook": "Asada tlayuda",
    "address": "8338 Street Ave",
    "city": "la",
    "location": {
      "lat": 34.0768945,
      "lng": -118.3440579
    }
  },
  {
    "id": "sugarfish-pasadena-outpost-pasadena",
    "name": "Sugarfish (Pasadena Outpost)",
    "neighborhood": "Pasadena",
    "cuisine": "Vietnamese",
    "category": "Fine Dining",
    "buzzFactor": "Eater LA Hot List",
    "michelinStatus": null,
    "hook": "Crispy pork belly banh mi",
    "address": "3144 Street Ave",
    "city": "la",
    "location": {
      "lat": 34.0768945,
      "lng": -118.3440579
    }
  },
  {
    "id": "the-sawtelle-table-no-43-sawtelle",
    "name": "The Sawtelle Table No. 43",
    "neighborhood": "Sawtelle",
    "cuisine": "Japanese",
    "category": "Breakfast Spot",
    "buzzFactor": "Eater LA Hot List",
    "michelinStatus": null,
    "hook": "A5 Wagyu handroll",
    "address": "4133 Street Ave",
    "city": "la",
    "location": {
      "lat": 34.0768945,
      "lng": -118.3440579
    }
  },
  {
    "id": "the-sawtelle-table-no-44-sawtelle",
    "name": "The Sawtelle Table No. 44",
    "neighborhood": "Sawtelle",
    "cuisine": "Middle Eastern",
    "category": "Casual Trendy",
    "buzzFactor": "Michelin Guide Selection",
    "michelinStatus": "Bib Gourmand",
    "hook": "Fluffy pita with spicy hummus",
    "address": "8665 Street Ave",
    "city": "la",
    "location": {
      "lat": 34.0768945,
      "lng": -118.3440579
    }
  },
  {
    "id": "wexler-s-deli-arts-district-outpost-arts-district",
    "name": "Wexler's Deli (Arts District Outpost)",
    "neighborhood": "Arts District",
    "cuisine": "American Contemporary",
    "category": "Breakfast Spot",
    "buzzFactor": "Reddit r/FoodLosAngeles",
    "michelinStatus": null,
    "hook": "Kale & quinoa crunch salad",
    "address": "4451 Street Ave",
    "city": "la",
    "location": {
      "lat": 34.0768945,
      "lng": -118.3440579
    }
  },
  {
    "id": "the-glendale-house-glendale",
    "name": "The Glendale House",
    "neighborhood": "Glendale",
    "cuisine": "French Bistro",
    "category": "Deli",
    "buzzFactor": "Reddit r/FoodLosAngeles",
    "michelinStatus": null,
    "hook": "Duck confit",
    "address": "1288 Street Ave",
    "city": "la",
    "location": {
      "lat": 34.0768945,
      "lng": -118.3440579
    }
  },
  {
    "id": "the-koreatown-bistro-no-47-koreatown",
    "name": "The Koreatown Bistro No. 47",
    "neighborhood": "Koreatown",
    "cuisine": "Mexican",
    "category": "Casual Trendy",
    "buzzFactor": "Michelin Guide Selection",
    "michelinStatus": "Recommended",
    "hook": "Al pastor trompo specials",
    "address": "8388 Street Ave",
    "city": "la",
    "location": {
      "lat": 34.0768945,
      "lng": -118.3440579
    }
  },
  {
    "id": "broad-street-oyster-co-koreatown-outpost-koreatown",
    "name": "Broad Street Oyster Co. (Koreatown Outpost)",
    "neighborhood": "Koreatown",
    "cuisine": "Thai",
    "category": "Diner",
    "buzzFactor": "Infatuation LA",
    "michelinStatus": null,
    "hook": "Crab fried rice",
    "address": "4769 Street Ave",
    "city": "la",
    "location": {
      "lat": 34.0768945,
      "lng": -118.3440579
    }
  },
  {
    "id": "the-alhambra-kitchen-alhambra",
    "name": "The Alhambra Kitchen",
    "neighborhood": "Alhambra",
    "cuisine": "Italian",
    "category": "Deli",
    "buzzFactor": "Michelin Guide Selection",
    "michelinStatus": "Recommended",
    "hook": "Housemade burrata",
    "address": "9186 Street Ave",
    "city": "la",
    "location": {
      "lat": 34.0768945,
      "lng": -118.3440579
    }
  },
  {
    "id": "the-venice-kitchen-venice",
    "name": "The Venice Kitchen",
    "neighborhood": "Venice",
    "cuisine": "Thai",
    "category": "Bar / Lounge",
    "buzzFactor": "Eater LA Hot List",
    "michelinStatus": null,
    "hook": "Spicy khao soi",
    "address": "9164 Street Ave",
    "city": "la",
    "location": {
      "lat": 34.0768945,
      "lng": -118.3440579
    }
  },
  {
    "id": "birdie-g-s-alhambra-outpost-alhambra",
    "name": "Birdie G's (Alhambra Outpost)",
    "neighborhood": "Alhambra",
    "cuisine": "Italian",
    "category": "Deli",
    "buzzFactor": "Infatuation LA",
    "michelinStatus": null,
    "hook": "Truffle mushroom gnocchi",
    "address": "5717 Street Ave",
    "city": "la",
    "location": {
      "lat": 34.0768945,
      "lng": -118.3440579
    }
  },
  {
    "id": "the-venice-kitchen-no-52-venice",
    "name": "The Venice Kitchen No. 52",
    "neighborhood": "Venice",
    "cuisine": "Korean",
    "category": "Taco Stand",
    "buzzFactor": "Eater LA Hot List",
    "michelinStatus": null,
    "hook": "Kimchi fried rice with pork belly",
    "address": "7039 Street Ave",
    "city": "la",
    "location": {
      "lat": 34.0768945,
      "lng": -118.3440579
    }
  },
  {
    "id": "the-hollywood-diner-hollywood",
    "name": "The Hollywood Diner",
    "neighborhood": "Hollywood",
    "cuisine": "Thai",
    "category": "Fine Dining",
    "buzzFactor": "Infatuation LA",
    "michelinStatus": null,
    "hook": "Spicy khao soi",
    "address": "4391 Street Ave",
    "city": "la",
    "location": {
      "lat": 34.0768945,
      "lng": -118.3440579
    }
  },
  {
    "id": "daikokuya-pasadena-outpost-no-54-pasadena",
    "name": "Daikokuya (Pasadena Outpost) No. 54",
    "neighborhood": "Pasadena",
    "cuisine": "Italian",
    "category": "Gastropub",
    "buzzFactor": "Eater LA Hot List",
    "michelinStatus": null,
    "hook": "Housemade burrata",
    "address": "1332 Street Ave",
    "city": "la",
    "location": {
      "lat": 34.0768945,
      "lng": -118.3440579
    }
  },
  {
    "id": "the-alhambra-bistro-alhambra",
    "name": "The Alhambra Bistro",
    "neighborhood": "Alhambra",
    "cuisine": "Italian",
    "category": "Diner",
    "buzzFactor": "Michelin Guide Selection",
    "michelinStatus": "Recommended",
    "hook": "Cacio e pepe in a cheese wheel",
    "address": "7141 Street Ave",
    "city": "la",
    "location": {
      "lat": 34.0768945,
      "lng": -118.3440579
    }
  },
  {
    "id": "the-hollywood-bar-hollywood",
    "name": "The Hollywood Bar",
    "neighborhood": "Hollywood",
    "cuisine": "Italian",
    "category": "Deli",
    "buzzFactor": "Eater LA Hot List",
    "michelinStatus": null,
    "hook": "Cacio e pepe in a cheese wheel",
    "address": "3541 Street Ave",
    "city": "la",
    "location": {
      "lat": 34.0768945,
      "lng": -118.3440579
    }
  },
  {
    "id": "kazunori-west-hollywood-outpost-west-hollywood",
    "name": "KazuNori (West Hollywood Outpost)",
    "neighborhood": "West Hollywood",
    "cuisine": "Korean",
    "category": "Diner",
    "buzzFactor": "Michelin Guide Selection",
    "michelinStatus": "Recommended",
    "hook": "Gochujang glazed fried chicken",
    "address": "6758 Street Ave",
    "city": "la",
    "location": {
      "lat": 34.0768945,
      "lng": -118.3440579
    }
  },
  {
    "id": "the-long-beach-house-long-beach",
    "name": "The Long Beach House",
    "neighborhood": "Long Beach",
    "cuisine": "Middle Eastern",
    "category": "Breakfast Spot",
    "buzzFactor": "Infatuation LA",
    "michelinStatus": null,
    "hook": "Chicken shawarma plate",
    "address": "3000 Street Ave",
    "city": "la",
    "location": {
      "lat": 34.0768945,
      "lng": -118.3440579
    }
  },
  {
    "id": "the-culver-city-house-culver-city",
    "name": "The Culver City House",
    "neighborhood": "Culver City",
    "cuisine": "French Bistro",
    "category": "Bar / Lounge",
    "buzzFactor": "Reddit r/FoodLosAngeles",
    "michelinStatus": null,
    "hook": "Steak frites with peppercorn sauce",
    "address": "6845 Street Ave",
    "city": "la",
    "location": {
      "lat": 34.0768945,
      "lng": -118.3440579
    }
  },
  {
    "id": "found-oyster-west-hollywood-outpost-west-hollywood",
    "name": "Found Oyster (West Hollywood Outpost)",
    "neighborhood": "West Hollywood",
    "cuisine": "Korean",
    "category": "Bar / Lounge",
    "buzzFactor": "Eater LA Hot List",
    "michelinStatus": null,
    "hook": "Kimchi fried rice with pork belly",
    "address": "734 Street Ave",
    "city": "la",
    "location": {
      "lat": 34.0768945,
      "lng": -118.3440579
    }
  },
  {
    "id": "the-long-beach-bar-long-beach",
    "name": "The Long Beach Bar",
    "neighborhood": "Long Beach",
    "cuisine": "Chinese / Sichuan",
    "category": "Breakfast Spot",
    "buzzFactor": "TimeOut LA",
    "michelinStatus": null,
    "hook": "Mapo tofu",
    "address": "5100 Street Ave",
    "city": "la",
    "location": {
      "lat": 34.0508669,
      "lng": -118.2577159
    }
  },
  {
    "id": "the-arts-district-eatery-arts-district",
    "name": "The Arts District Eatery",
    "neighborhood": "Arts District",
    "cuisine": "Korean",
    "category": "Fine Dining",
    "buzzFactor": "Infatuation LA",
    "michelinStatus": null,
    "hook": "Galbi jjim comfort bowl",
    "address": "5478 Street Ave",
    "city": "la",
    "location": {
      "lat": 34.0768945,
      "lng": -118.3440579
    }
  },
  {
    "id": "coni-seafood-hollywood-outpost-hollywood",
    "name": "Coni'Seafood (Hollywood Outpost)",
    "neighborhood": "Hollywood",
    "cuisine": "Thai",
    "category": "Deli",
    "buzzFactor": "Michelin Guide Selection",
    "michelinStatus": "Recommended",
    "hook": "Spicy khao soi",
    "address": "8885 Street Ave",
    "city": "la",
    "location": {
      "lat": 34.0768945,
      "lng": -118.3440579
    }
  },
  {
    "id": "the-venice-table-venice",
    "name": "The Venice Table",
    "neighborhood": "Venice",
    "cuisine": "American Contemporary",
    "category": "Casual Trendy",
    "buzzFactor": "Infatuation LA",
    "michelinStatus": null,
    "hook": "Dry-aged smashburger",
    "address": "4449 Street Ave",
    "city": "la",
    "location": {
      "lat": 34.0768945,
      "lng": -118.3440579
    }
  },
  {
    "id": "the-hollywood-eatery-hollywood",
    "name": "The Hollywood Eatery",
    "neighborhood": "Hollywood",
    "cuisine": "Mexican",
    "category": "Gastropub",
    "buzzFactor": "Reddit r/FoodLosAngeles",
    "michelinStatus": null,
    "hook": "Birria tacos with consommé",
    "address": "8479 Street Ave",
    "city": "la",
    "location": {
      "lat": 34.0768945,
      "lng": -118.3440579
    }
  },
  {
    "id": "birdie-g-s-venice-outpost-venice",
    "name": "Birdie G's (Venice Outpost)",
    "neighborhood": "Venice",
    "cuisine": "Japanese",
    "category": "Breakfast Spot",
    "buzzFactor": "Eater LA Hot List",
    "michelinStatus": null,
    "hook": "Uni & scallop omakase piece",
    "address": "7244 Street Ave",
    "city": "la",
    "location": {
      "lat": 34.0768945,
      "lng": -118.3440579
    }
  },
  {
    "id": "the-sawtelle-diner-sawtelle",
    "name": "The Sawtelle Diner",
    "neighborhood": "Sawtelle",
    "cuisine": "Mexican",
    "category": "Diner",
    "buzzFactor": "Eater LA Hot List",
    "michelinStatus": null,
    "hook": "Sweet potato taquitos",
    "address": "5509 Street Ave",
    "city": "la",
    "location": {
      "lat": 34.0768945,
      "lng": -118.3440579
    }
  },
  {
    "id": "the-culver-city-table-culver-city",
    "name": "The Culver City Table",
    "neighborhood": "Culver City",
    "cuisine": "Middle Eastern",
    "category": "Casual Trendy",
    "buzzFactor": "Reddit r/FoodLosAngeles",
    "michelinStatus": null,
    "hook": "Falafel wrap with tahini",
    "address": "5167 Street Ave",
    "city": "la",
    "location": {
      "lat": 34.0768945,
      "lng": -118.3440579
    }
  },
  {
    "id": "parks-bbq-culver-city-outpost-culver-city",
    "name": "Parks BBQ (Culver City Outpost)",
    "neighborhood": "Culver City",
    "cuisine": "French Bistro",
    "category": "Gastropub",
    "buzzFactor": "Reddit r/FoodLosAngeles",
    "michelinStatus": null,
    "hook": "Classic escargot",
    "address": "2185 Street Ave",
    "city": "la",
    "location": {
      "lat": 34.0768945,
      "lng": -118.3440579
    }
  },
  {
    "id": "the-arts-district-table-no-70-arts-district",
    "name": "The Arts District Table No. 70",
    "neighborhood": "Arts District",
    "cuisine": "Korean",
    "category": "Gastropub",
    "buzzFactor": "Infatuation LA",
    "michelinStatus": null,
    "hook": "Bulgogi taco",
    "address": "9424 Street Ave",
    "city": "la",
    "location": {
      "lat": 34.0768945,
      "lng": -118.3440579
    }
  },
  {
    "id": "the-venice-bistro-no-71-venice",
    "name": "The Venice Bistro No. 71",
    "neighborhood": "Venice",
    "cuisine": "Thai",
    "category": "Fine Dining",
    "buzzFactor": "Reddit r/FoodLosAngeles",
    "michelinStatus": null,
    "hook": "Green papaya salad with salted crab",
    "address": "7143 Street Ave",
    "city": "la",
    "location": {
      "lat": 34.0768945,
      "lng": -118.3440579
    }
  },
  {
    "id": "ayara-thai-glendale-outpost-glendale",
    "name": "Ayara Thai (Glendale Outpost)",
    "neighborhood": "Glendale",
    "cuisine": "Middle Eastern",
    "category": "Taco Stand",
    "buzzFactor": "TimeOut LA",
    "michelinStatus": null,
    "hook": "Falafel wrap with tahini",
    "address": "3601 Street Ave",
    "city": "la",
    "location": {
      "lat": 34.0768945,
      "lng": -118.3440579
    }
  },
  {
    "id": "the-arts-district-bar-no-73-arts-district",
    "name": "The Arts District Bar No. 73",
    "neighborhood": "Arts District",
    "cuisine": "Vietnamese",
    "category": "Bar / Lounge",
    "buzzFactor": "Eater LA Hot List",
    "michelinStatus": null,
    "hook": "Lemongrass chicken vermicelli",
    "address": "8545 Street Ave",
    "city": "la",
    "location": {
      "lat": 34.0768945,
      "lng": -118.3440579
    }
  },
  {
    "id": "the-long-beach-diner-long-beach",
    "name": "The Long Beach Diner",
    "neighborhood": "Long Beach",
    "cuisine": "Middle Eastern",
    "category": "Casual Trendy",
    "buzzFactor": "Infatuation LA",
    "michelinStatus": null,
    "hook": "Falafel wrap with tahini",
    "address": "5185 Street Ave",
    "city": "la",
    "location": {
      "lat": 34.0768945,
      "lng": -118.3440579
    }
  },
  {
    "id": "wexler-s-deli-downtown-la-outpost-downtown-la",
    "name": "Wexler's Deli (Downtown LA Outpost)",
    "neighborhood": "Downtown LA",
    "cuisine": "Korean",
    "category": "Bar / Lounge",
    "buzzFactor": "Eater LA Hot List",
    "michelinStatus": null,
    "hook": "Galbi jjim comfort bowl",
    "address": "7884 Street Ave",
    "city": "la",
    "location": {
      "lat": 34.0768945,
      "lng": -118.3440579
    }
  },
  {
    "id": "the-sawtelle-bistro-sawtelle",
    "name": "The Sawtelle Bistro",
    "neighborhood": "Sawtelle",
    "cuisine": "Middle Eastern",
    "category": "Taco Stand",
    "buzzFactor": "Michelin Guide Selection",
    "michelinStatus": "Bib Gourmand",
    "hook": "Fluffy pita with spicy hummus",
    "address": "6391 Street Ave",
    "city": "la",
    "location": {
      "lat": 34.0768945,
      "lng": -118.3440579
    }
  },
  {
    "id": "the-silver-lake-house-silver-lake",
    "name": "The Silver Lake House",
    "neighborhood": "Silver Lake",
    "cuisine": "Chinese / Sichuan",
    "category": "Breakfast Spot",
    "buzzFactor": "Eater LA Hot List",
    "michelinStatus": null,
    "hook": "Pork belly bao",
    "address": "1846 Street Ave",
    "city": "la",
    "location": {
      "lat": 34.0768945,
      "lng": -118.3440579
    }
  },
  {
    "id": "northern-thai-food-club-west-hollywood-outpost-west-hollywood",
    "name": "Northern Thai Food Club (West Hollywood Outpost)",
    "neighborhood": "West Hollywood",
    "cuisine": "French Bistro",
    "category": "Bar / Lounge",
    "buzzFactor": "Michelin Guide Selection",
    "michelinStatus": "Recommended",
    "hook": "Duck confit",
    "address": "922 Street Ave",
    "city": "la",
    "location": {
      "lat": 34.0768945,
      "lng": -118.3440579
    }
  },
  {
    "id": "the-glendale-house-no-79-glendale",
    "name": "The Glendale House No. 79",
    "neighborhood": "Glendale",
    "cuisine": "Vietnamese",
    "category": "Casual Trendy",
    "buzzFactor": "Infatuation LA",
    "michelinStatus": null,
    "hook": "Crispy pork belly banh mi",
    "address": "7712 Street Ave",
    "city": "la",
    "location": {
      "lat": 34.0768945,
      "lng": -118.3440579
    }
  },
  {
    "id": "the-alhambra-eatery-alhambra",
    "name": "The Alhambra Eatery",
    "neighborhood": "Alhambra",
    "cuisine": "Vietnamese",
    "category": "Taco Stand",
    "buzzFactor": "Michelin Guide Selection",
    "michelinStatus": "Bib Gourmand",
    "hook": "Garlic noodles with shrimp",
    "address": "9076 Street Ave",
    "city": "la",
    "location": {
      "lat": 34.0768945,
      "lng": -118.3440579
    }
  },
  {
    "id": "citrin-glendale-outpost-glendale",
    "name": "Citrin (Glendale Outpost)",
    "neighborhood": "Glendale",
    "cuisine": "Chinese / Sichuan",
    "category": "Taco Stand",
    "buzzFactor": "Reddit r/FoodLosAngeles",
    "michelinStatus": null,
    "hook": "Mapo tofu",
    "address": "4150 Street Ave",
    "city": "la",
    "location": {
      "lat": 34.0768945,
      "lng": -118.3440579
    }
  },
  {
    "id": "the-venice-kitchen-no-82-venice",
    "name": "The Venice Kitchen No. 82",
    "neighborhood": "Venice",
    "cuisine": "Thai",
    "category": "Breakfast Spot",
    "buzzFactor": "TimeOut LA",
    "michelinStatus": null,
    "hook": "Green papaya salad with salted crab",
    "address": "4781 Street Ave",
    "city": "la",
    "location": {
      "lat": 34.0768945,
      "lng": -118.3440579
    }
  },
  {
    "id": "the-hollywood-kitchen-hollywood",
    "name": "The Hollywood Kitchen",
    "neighborhood": "Hollywood",
    "cuisine": "Korean",
    "category": "Diner",
    "buzzFactor": "Michelin Guide Selection",
    "michelinStatus": "Recommended",
    "hook": "Kimchi fried rice with pork belly",
    "address": "2367 Street Ave",
    "city": "la",
    "location": {
      "lat": 34.0768945,
      "lng": -118.3440579
    }
  },
  {
    "id": "birdie-g-s-culver-city-outpost-culver-city",
    "name": "Birdie G's (Culver City Outpost)",
    "neighborhood": "Culver City",
    "cuisine": "Italian",
    "category": "Gastropub",
    "buzzFactor": "Infatuation LA",
    "michelinStatus": null,
    "hook": "Wood-fired Margherita",
    "address": "3605 Street Ave",
    "city": "la",
    "location": {
      "lat": 34.0768945,
      "lng": -118.3440579
    }
  },
  {
    "id": "the-hollywood-eatery-no-85-hollywood",
    "name": "The Hollywood Eatery No. 85",
    "neighborhood": "Hollywood",
    "cuisine": "Japanese",
    "category": "Gastropub",
    "buzzFactor": "Michelin Guide Selection",
    "michelinStatus": "Recommended",
    "hook": "Uni & scallop omakase piece",
    "address": "6912 Street Ave",
    "city": "la",
    "location": {
      "lat": 34.0768945,
      "lng": -118.3440579
    }
  },
  {
    "id": "the-sawtelle-diner-no-86-sawtelle",
    "name": "The Sawtelle Diner No. 86",
    "neighborhood": "Sawtelle",
    "cuisine": "Mexican",
    "category": "Gastropub",
    "buzzFactor": "Michelin Guide Selection",
    "michelinStatus": "Recommended",
    "hook": "Sweet potato taquitos",
    "address": "420 Street Ave",
    "city": "la",
    "location": {
      "lat": 34.0768945,
      "lng": -118.3440579
    }
  },
  {
    "id": "cole-s-french-dip-downtown-la-outpost-downtown-la",
    "name": "Cole's French Dip (Downtown LA Outpost)",
    "neighborhood": "Downtown LA",
    "cuisine": "Middle Eastern",
    "category": "Taco Stand",
    "buzzFactor": "Reddit r/FoodLosAngeles",
    "michelinStatus": null,
    "hook": "Lamb kofta kebab",
    "address": "6489 Street Ave",
    "city": "la",
    "location": {
      "lat": 34.0768945,
      "lng": -118.3440579
    }
  },
  {
    "id": "the-santa-monica-eatery-santa-monica",
    "name": "The Santa Monica Eatery",
    "neighborhood": "Santa Monica",
    "cuisine": "French Bistro",
    "category": "Taco Stand",
    "buzzFactor": "Reddit r/FoodLosAngeles",
    "michelinStatus": null,
    "hook": "Duck confit",
    "address": "8056 Street Ave",
    "city": "la",
    "location": {
      "lat": 34.0768945,
      "lng": -118.3440579
    }
  },
  {
    "id": "the-arts-district-diner-arts-district",
    "name": "The Arts District Diner",
    "neighborhood": "Arts District",
    "cuisine": "Mexican",
    "category": "Diner",
    "buzzFactor": "TimeOut LA",
    "michelinStatus": null,
    "hook": "Al pastor trompo specials",
    "address": "2804 Street Ave",
    "city": "la",
    "location": {
      "lat": 34.0768945,
      "lng": -118.3440579
    }
  },
  {
    "id": "quarters-korean-bbq-sawtelle-outpost-sawtelle",
    "name": "Quarters Korean BBQ (Sawtelle Outpost)",
    "neighborhood": "Sawtelle",
    "cuisine": "Chinese / Sichuan",
    "category": "Fine Dining",
    "buzzFactor": "Michelin Guide Selection",
    "michelinStatus": "Recommended",
    "hook": "Mapo tofu",
    "address": "544 Street Ave",
    "city": "la",
    "location": {
      "lat": 34.0768945,
      "lng": -118.3440579
    }
  },
  {
    "id": "the-long-beach-bistro-long-beach",
    "name": "The Long Beach Bistro",
    "neighborhood": "Long Beach",
    "cuisine": "Japanese",
    "category": "Bar / Lounge",
    "buzzFactor": "TimeOut LA",
    "michelinStatus": null,
    "hook": "Uni & scallop omakase piece",
    "address": "923 Street Ave",
    "city": "la",
    "location": {
      "lat": 34.0768945,
      "lng": -118.3440579
    }
  },
  {
    "id": "the-santa-monica-bar-santa-monica",
    "name": "The Santa Monica Bar",
    "neighborhood": "Santa Monica",
    "cuisine": "Thai",
    "category": "Diner",
    "buzzFactor": "TimeOut LA",
    "michelinStatus": null,
    "hook": "Green papaya salad with salted crab",
    "address": "5629 Street Ave",
    "city": "la",
    "location": {
      "lat": 34.0768945,
      "lng": -118.3440579
    }
  },
  {
    "id": "dan-modern-chinese-venice-outpost-venice",
    "name": "Dan Modern Chinese (Venice Outpost)",
    "neighborhood": "Venice",
    "cuisine": "French Bistro",
    "category": "Gastropub",
    "buzzFactor": "Eater LA Hot List",
    "michelinStatus": null,
    "hook": "Classic escargot",
    "address": "417 Street Ave",
    "city": "la",
    "location": {
      "lat": 34.0768945,
      "lng": -118.3440579
    }
  },
  {
    "id": "the-santa-monica-house-no-94-santa-monica",
    "name": "The Santa Monica House No. 94",
    "neighborhood": "Santa Monica",
    "cuisine": "Vietnamese",
    "category": "Diner",
    "buzzFactor": "Eater LA Hot List",
    "michelinStatus": null,
    "hook": "Filet mignon pho",
    "address": "759 Street Ave",
    "city": "la",
    "location": {
      "lat": 34.0768945,
      "lng": -118.3440579
    }
  },
  {
    "id": "the-long-beach-table-long-beach",
    "name": "The Long Beach Table",
    "neighborhood": "Long Beach",
    "cuisine": "Mexican",
    "category": "Breakfast Spot",
    "buzzFactor": "Eater LA Hot List",
    "michelinStatus": null,
    "hook": "Sweet potato taquitos",
    "address": "2596 Street Ave",
    "city": "la",
    "location": {
      "lat": 34.0768945,
      "lng": -118.3440579
    }
  },
  {
    "id": "quarters-korean-bbq-arts-district-outpost-arts-district",
    "name": "Quarters Korean BBQ (Arts District Outpost)",
    "neighborhood": "Arts District",
    "cuisine": "Korean",
    "category": "Taco Stand",
    "buzzFactor": "Eater LA Hot List",
    "michelinStatus": null,
    "hook": "Galbi jjim comfort bowl",
    "address": "3671 Street Ave",
    "city": "la",
    "location": {
      "lat": 34.0768945,
      "lng": -118.3440579
    }
  },
  {
    "id": "the-silver-lake-table-silver-lake",
    "name": "The Silver Lake Table",
    "neighborhood": "Silver Lake",
    "cuisine": "Chinese / Sichuan",
    "category": "Diner",
    "buzzFactor": "Michelin Guide Selection",
    "michelinStatus": "Recommended",
    "hook": "Dan dan hand-pulled noodles",
    "address": "1976 Street Ave",
    "city": "la",
    "location": {
      "lat": 34.0768945,
      "lng": -118.3440579
    }
  },
  {
    "id": "the-alhambra-bar-alhambra",
    "name": "The Alhambra Bar",
    "neighborhood": "Alhambra",
    "cuisine": "Italian",
    "category": "Casual Trendy",
    "buzzFactor": "Eater LA Hot List",
    "michelinStatus": null,
    "hook": "Truffle mushroom gnocchi",
    "address": "9533 Street Ave",
    "city": "la",
    "location": {
      "lat": 34.0768945,
      "lng": -118.3440579
    }
  },
  {
    "id": "cassia-koreatown-outpost-koreatown",
    "name": "Cassia (Koreatown Outpost)",
    "neighborhood": "Koreatown",
    "cuisine": "French Bistro",
    "category": "Breakfast Spot",
    "buzzFactor": "Michelin Guide Selection",
    "michelinStatus": "Recommended",
    "hook": "Gruyere cheese soufflé",
    "address": "4078 Street Ave",
    "city": "la",
    "location": {
      "lat": 34.0768945,
      "lng": -118.3440579
    }
  },
  {
    "id": "the-west-hollywood-house-west-hollywood",
    "name": "The West Hollywood House",
    "neighborhood": "West Hollywood",
    "cuisine": "Japanese",
    "category": "Casual Trendy",
    "buzzFactor": "Michelin Guide Selection",
    "michelinStatus": "Bib Gourmand",
    "hook": "Tonkotsu black garlic ramen",
    "address": "772 Street Ave",
    "city": "la",
    "location": {
      "lat": 34.0768945,
      "lng": -118.3440579
    }
  },
  {
    "id": "the-koreatown-diner-koreatown",
    "name": "The Koreatown Diner",
    "neighborhood": "Koreatown",
    "cuisine": "American Contemporary",
    "category": "Diner",
    "buzzFactor": "Michelin Guide Selection",
    "michelinStatus": "Recommended",
    "hook": "Hot honey chicken biscuit",
    "address": "5690 Street Ave",
    "city": "la",
    "location": {
      "lat": 34.0768945,
      "lng": -118.3440579
    }
  },
  {
    "id": "broad-street-oyster-co-koreatown-outpost-no-102-koreatown",
    "name": "Broad Street Oyster Co. (Koreatown Outpost) No. 102",
    "neighborhood": "Koreatown",
    "cuisine": "Mexican",
    "category": "Taco Stand",
    "buzzFactor": "TimeOut LA",
    "michelinStatus": null,
    "hook": "Al pastor trompo specials",
    "address": "7632 Street Ave",
    "city": "la",
    "location": {
      "lat": 34.0768945,
      "lng": -118.3440579
    }
  },
  {
    "id": "the-culver-city-diner-culver-city",
    "name": "The Culver City Diner",
    "neighborhood": "Culver City",
    "cuisine": "Italian",
    "category": "Bar / Lounge",
    "buzzFactor": "Michelin Guide Selection",
    "michelinStatus": "Recommended",
    "hook": "Housemade burrata",
    "address": "4525 Street Ave",
    "city": "la",
    "location": {
      "lat": 34.0768945,
      "lng": -118.3440579
    }
  },
  {
    "id": "the-sawtelle-bar-sawtelle",
    "name": "The Sawtelle Bar",
    "neighborhood": "Sawtelle",
    "cuisine": "Middle Eastern",
    "category": "Taco Stand",
    "buzzFactor": "Michelin Guide Selection",
    "michelinStatus": "Bib Gourmand",
    "hook": "Lamb kofta kebab",
    "address": "5380 Street Ave",
    "city": "la",
    "location": {
      "lat": 34.0768945,
      "lng": -118.3440579
    }
  },
  {
    "id": "citrin-glendale-outpost-no-105-glendale",
    "name": "Citrin (Glendale Outpost) No. 105",
    "neighborhood": "Glendale",
    "cuisine": "Korean",
    "category": "Deli",
    "buzzFactor": "Infatuation LA",
    "michelinStatus": null,
    "hook": "Gochujang glazed fried chicken",
    "address": "7713 Street Ave",
    "city": "la",
    "location": {
      "lat": 34.0768945,
      "lng": -118.3440579
    }
  },
  {
    "id": "the-downtown-la-house-downtown-la",
    "name": "The Downtown LA House",
    "neighborhood": "Downtown LA",
    "cuisine": "Middle Eastern",
    "category": "Diner",
    "buzzFactor": "TimeOut LA",
    "michelinStatus": null,
    "hook": "Lamb kofta kebab",
    "address": "5425 Street Ave",
    "city": "la",
    "location": {
      "lat": 34.0768945,
      "lng": -118.3440579
    }
  },
  {
    "id": "the-hollywood-bar-no-107-hollywood",
    "name": "The Hollywood Bar No. 107",
    "neighborhood": "Hollywood",
    "cuisine": "Italian",
    "category": "Breakfast Spot",
    "buzzFactor": "Reddit r/FoodLosAngeles",
    "michelinStatus": null,
    "hook": "Housemade burrata",
    "address": "4681 Street Ave",
    "city": "la",
    "location": {
      "lat": 34.0768945,
      "lng": -118.3440579
    }
  },
  {
    "id": "marugame-udon-pasadena-outpost-pasadena",
    "name": "Marugame Udon (Pasadena Outpost)",
    "neighborhood": "Pasadena",
    "cuisine": "Middle Eastern",
    "category": "Fine Dining",
    "buzzFactor": "Infatuation LA",
    "michelinStatus": null,
    "hook": "Falafel wrap with tahini",
    "address": "4054 Street Ave",
    "city": "la",
    "location": {
      "lat": 34.0768945,
      "lng": -118.3440579
    }
  },
  {
    "id": "the-culver-city-diner-no-109-culver-city",
    "name": "The Culver City Diner No. 109",
    "neighborhood": "Culver City",
    "cuisine": "French Bistro",
    "category": "Breakfast Spot",
    "buzzFactor": "TimeOut LA",
    "michelinStatus": null,
    "hook": "Gruyere cheese soufflé",
    "address": "8141 Street Ave",
    "city": "la",
    "location": {
      "lat": 34.0768945,
      "lng": -118.3440579
    }
  },
  {
    "id": "the-venice-eatery-venice",
    "name": "The Venice Eatery",
    "neighborhood": "Venice",
    "cuisine": "Chinese / Sichuan",
    "category": "Casual Trendy",
    "buzzFactor": "Infatuation LA",
    "michelinStatus": null,
    "hook": "Spicy cumin lamb",
    "address": "4086 Street Ave",
    "city": "la",
    "location": {
      "lat": 34.0768945,
      "lng": -118.3440579
    }
  },
  {
    "id": "tacos-tu-madre-pasadena-outpost-pasadena",
    "name": "Tacos Tu Madre (Pasadena Outpost)",
    "neighborhood": "Pasadena",
    "cuisine": "Thai",
    "category": "Taco Stand",
    "buzzFactor": "Michelin Guide Selection",
    "michelinStatus": "Recommended",
    "hook": "Pad see ew with crispy pork",
    "address": "7071 Street Ave",
    "city": "la",
    "location": {
      "lat": 34.0768945,
      "lng": -118.3440579
    }
  },
  {
    "id": "the-culver-city-bar-culver-city",
    "name": "The Culver City Bar",
    "neighborhood": "Culver City",
    "cuisine": "Vietnamese",
    "category": "Diner",
    "buzzFactor": "TimeOut LA",
    "michelinStatus": null,
    "hook": "Garlic noodles with shrimp",
    "address": "5123 Street Ave",
    "city": "la",
    "location": {
      "lat": 34.0768945,
      "lng": -118.3440579
    }
  },
  {
    "id": "the-culver-city-bar-no-113-culver-city",
    "name": "The Culver City Bar No. 113",
    "neighborhood": "Culver City",
    "cuisine": "Thai",
    "category": "Casual Trendy",
    "buzzFactor": "Infatuation LA",
    "michelinStatus": null,
    "hook": "Crab fried rice",
    "address": "2058 Street Ave",
    "city": "la",
    "location": {
      "lat": 34.0768945,
      "lng": -118.3440579
    }
  },
  {
    "id": "canter-s-deli-santa-monica-outpost-santa-monica",
    "name": "Canter's Deli (Santa Monica Outpost)",
    "neighborhood": "Santa Monica",
    "cuisine": "Vietnamese",
    "category": "Breakfast Spot",
    "buzzFactor": "TimeOut LA",
    "michelinStatus": null,
    "hook": "Crispy pork belly banh mi",
    "address": "9759 Street Ave",
    "city": "la",
    "location": {
      "lat": 34.0768945,
      "lng": -118.3440579
    }
  },
  {
    "id": "the-long-beach-bar-no-115-long-beach",
    "name": "The Long Beach Bar No. 115",
    "neighborhood": "Long Beach",
    "cuisine": "Vietnamese",
    "category": "Casual Trendy",
    "buzzFactor": "Infatuation LA",
    "michelinStatus": null,
    "hook": "Garlic noodles with shrimp",
    "address": "3827 Street Ave",
    "city": "la",
    "location": {
      "lat": 34.0768945,
      "lng": -118.3440579
    }
  },
  {
    "id": "the-downtown-la-bistro-downtown-la",
    "name": "The Downtown LA Bistro",
    "neighborhood": "Downtown LA",
    "cuisine": "American Contemporary",
    "category": "Deli",
    "buzzFactor": "Michelin Guide Selection",
    "michelinStatus": "Bib Gourmand",
    "hook": "Wood-grilled heritage pork chop",
    "address": "4594 Street Ave",
    "city": "la",
    "location": {
      "lat": 34.0768945,
      "lng": -118.3440579
    }
  },
  {
    "id": "guelaguetza-culver-city-outpost-culver-city",
    "name": "Guelaguetza (Culver City Outpost)",
    "neighborhood": "Culver City",
    "cuisine": "Mexican",
    "category": "Deli",
    "buzzFactor": "Infatuation LA",
    "michelinStatus": null,
    "hook": "Birria tacos with consommé",
    "address": "8142 Street Ave",
    "city": "la",
    "location": {
      "lat": 34.0768945,
      "lng": -118.3440579
    }
  },
  {
    "id": "the-glendale-eatery-glendale",
    "name": "The Glendale Eatery",
    "neighborhood": "Glendale",
    "cuisine": "Japanese",
    "category": "Deli",
    "buzzFactor": "TimeOut LA",
    "michelinStatus": null,
    "hook": "A5 Wagyu handroll",
    "address": "5682 Street Ave",
    "city": "la",
    "location": {
      "lat": 34.0768945,
      "lng": -118.3440579
    }
  },
  {
    "id": "the-long-beach-kitchen-long-beach",
    "name": "The Long Beach Kitchen",
    "neighborhood": "Long Beach",
    "cuisine": "Italian",
    "category": "Deli",
    "buzzFactor": "TimeOut LA",
    "michelinStatus": null,
    "hook": "Cacio e pepe in a cheese wheel",
    "address": "1170 Street Ave",
    "city": "la",
    "location": {
      "lat": 34.0768945,
      "lng": -118.3440579
    }
  },
  {
    "id": "jon-vinny-s-alhambra-outpost-alhambra",
    "name": "Jon & Vinny's (Alhambra Outpost)",
    "neighborhood": "Alhambra",
    "cuisine": "French Bistro",
    "category": "Casual Trendy",
    "buzzFactor": "Eater LA Hot List",
    "michelinStatus": null,
    "hook": "Gruyere cheese soufflé",
    "address": "2544 Street Ave",
    "city": "la",
    "location": {
      "lat": 34.0768945,
      "lng": -118.3440579
    }
  },
  {
    "id": "the-santa-monica-table-no-121-santa-monica",
    "name": "The Santa Monica Table No. 121",
    "neighborhood": "Santa Monica",
    "cuisine": "Middle Eastern",
    "category": "Casual Trendy",
    "buzzFactor": "Eater LA Hot List",
    "michelinStatus": null,
    "hook": "Falafel wrap with tahini",
    "address": "6918 Street Ave",
    "city": "la",
    "location": {
      "lat": 34.0768945,
      "lng": -118.3440579
    }
  },
  {
    "id": "the-glendale-bar-glendale",
    "name": "The Glendale Bar",
    "neighborhood": "Glendale",
    "cuisine": "Middle Eastern",
    "category": "Gastropub",
    "buzzFactor": "TimeOut LA",
    "michelinStatus": null,
    "hook": "Chicken shawarma plate",
    "address": "9742 Street Ave",
    "city": "la",
    "location": {
      "lat": 34.0768945,
      "lng": -118.3440579
    }
  },
  {
    "id": "citrin-alhambra-outpost-alhambra",
    "name": "Citrin (Alhambra Outpost)",
    "neighborhood": "Alhambra",
    "cuisine": "French Bistro",
    "category": "Fine Dining",
    "buzzFactor": "Eater LA Hot List",
    "michelinStatus": null,
    "hook": "Classic escargot",
    "address": "3504 Street Ave",
    "city": "la",
    "location": {
      "lat": 34.0768945,
      "lng": -118.3440579
    }
  },
  {
    "id": "the-silver-lake-bistro-silver-lake",
    "name": "The Silver Lake Bistro",
    "neighborhood": "Silver Lake",
    "cuisine": "Korean",
    "category": "Casual Trendy",
    "buzzFactor": "Infatuation LA",
    "michelinStatus": null,
    "hook": "Kimchi fried rice with pork belly",
    "address": "9143 Street Ave",
    "city": "la",
    "location": {
      "lat": 34.0768945,
      "lng": -118.3440579
    }
  },
  {
    "id": "the-sawtelle-diner-no-125-sawtelle",
    "name": "The Sawtelle Diner No. 125",
    "neighborhood": "Sawtelle",
    "cuisine": "Japanese",
    "category": "Fine Dining",
    "buzzFactor": "TimeOut LA",
    "michelinStatus": null,
    "hook": "Spicy tuna crispy rice",
    "address": "9829 Street Ave",
    "city": "la",
    "location": {
      "lat": 34.0768945,
      "lng": -118.3440579
    }
  },
  {
    "id": "birdie-g-s-santa-monica-outpost-santa-monica",
    "name": "Birdie G's (Santa Monica Outpost)",
    "neighborhood": "Santa Monica",
    "cuisine": "Chinese / Sichuan",
    "category": "Fine Dining",
    "buzzFactor": "Reddit r/FoodLosAngeles",
    "michelinStatus": null,
    "hook": "Dan dan hand-pulled noodles",
    "address": "4732 Street Ave",
    "city": "la",
    "location": {
      "lat": 34.0768945,
      "lng": -118.3440579
    }
  },
  {
    "id": "the-venice-diner-venice",
    "name": "The Venice Diner",
    "neighborhood": "Venice",
    "cuisine": "Chinese / Sichuan",
    "category": "Breakfast Spot",
    "buzzFactor": "Michelin Guide Selection",
    "michelinStatus": "Recommended",
    "hook": "Spicy cumin lamb",
    "address": "3341 Street Ave",
    "city": "la",
    "location": {
      "lat": 34.0768945,
      "lng": -118.3440579
    }
  },
  {
    "id": "the-arts-district-bar-no-128-arts-district",
    "name": "The Arts District Bar No. 128",
    "neighborhood": "Arts District",
    "cuisine": "French Bistro",
    "category": "Breakfast Spot",
    "buzzFactor": "Infatuation LA",
    "michelinStatus": null,
    "hook": "Steak frites with peppercorn sauce",
    "address": "2430 Street Ave",
    "city": "la",
    "location": {
      "lat": 34.0768945,
      "lng": -118.3440579
    }
  },
  {
    "id": "soban-west-hollywood-outpost-west-hollywood",
    "name": "Soban (West Hollywood Outpost)",
    "neighborhood": "West Hollywood",
    "cuisine": "Japanese",
    "category": "Bar / Lounge",
    "buzzFactor": "Reddit r/FoodLosAngeles",
    "michelinStatus": null,
    "hook": "A5 Wagyu handroll",
    "address": "9425 Street Ave",
    "city": "la",
    "location": {
      "lat": 34.0768945,
      "lng": -118.3440579
    }
  },
  {
    "id": "the-glendale-diner-glendale",
    "name": "The Glendale Diner",
    "neighborhood": "Glendale",
    "cuisine": "Thai",
    "category": "Casual Trendy",
    "buzzFactor": "Reddit r/FoodLosAngeles",
    "michelinStatus": null,
    "hook": "Green papaya salad with salted crab",
    "address": "6694 Street Ave",
    "city": "la",
    "location": {
      "lat": 34.0768945,
      "lng": -118.3440579
    }
  },
  {
    "id": "the-koreatown-kitchen-koreatown",
    "name": "The Koreatown Kitchen",
    "neighborhood": "Koreatown",
    "cuisine": "Thai",
    "category": "Taco Stand",
    "buzzFactor": "Michelin Guide Selection",
    "michelinStatus": "Recommended",
    "hook": "Green papaya salad with salted crab",
    "address": "7178 Street Ave",
    "city": "la",
    "location": {
      "lat": 34.0768945,
      "lng": -118.3440579
    }
  },
  {
    "id": "ayara-thai-koreatown-outpost-koreatown",
    "name": "Ayara Thai (Koreatown Outpost)",
    "neighborhood": "Koreatown",
    "cuisine": "American Contemporary",
    "category": "Fine Dining",
    "buzzFactor": "Infatuation LA",
    "michelinStatus": null,
    "hook": "Kale & quinoa crunch salad",
    "address": "9524 Street Ave",
    "city": "la",
    "location": {
      "lat": 34.0768945,
      "lng": -118.3440579
    }
  },
  {
    "id": "the-alhambra-house-alhambra",
    "name": "The Alhambra House",
    "neighborhood": "Alhambra",
    "cuisine": "Middle Eastern",
    "category": "Deli",
    "buzzFactor": "Eater LA Hot List",
    "michelinStatus": null,
    "hook": "Fluffy pita with spicy hummus",
    "address": "2970 Street Ave",
    "city": "la",
    "location": {
      "lat": 34.0768945,
      "lng": -118.3440579
    }
  },
  {
    "id": "the-silver-lake-eatery-no-134-silver-lake",
    "name": "The Silver Lake Eatery No. 134",
    "neighborhood": "Silver Lake",
    "cuisine": "Chinese / Sichuan",
    "category": "Deli",
    "buzzFactor": "Michelin Guide Selection",
    "michelinStatus": "Recommended",
    "hook": "Pork belly bao",
    "address": "8156 Street Ave",
    "city": "la",
    "location": {
      "lat": 34.0768945,
      "lng": -118.3440579
    }
  },
  {
    "id": "guerilla-tacos-sawtelle-outpost-sawtelle",
    "name": "Guerilla Tacos (Sawtelle Outpost)",
    "neighborhood": "Sawtelle",
    "cuisine": "Japanese",
    "category": "Diner",
    "buzzFactor": "Reddit r/FoodLosAngeles",
    "michelinStatus": null,
    "hook": "Uni & scallop omakase piece",
    "address": "1813 Street Ave",
    "city": "la",
    "location": {
      "lat": 34.0768945,
      "lng": -118.3440579
    }
  },
  {
    "id": "the-culver-city-bar-no-136-culver-city",
    "name": "The Culver City Bar No. 136",
    "neighborhood": "Culver City",
    "cuisine": "Italian",
    "category": "Gastropub",
    "buzzFactor": "TimeOut LA",
    "michelinStatus": null,
    "hook": "Truffle mushroom gnocchi",
    "address": "6661 Street Ave",
    "city": "la",
    "location": {
      "lat": 34.0768945,
      "lng": -118.3440579
    }
  },
  {
    "id": "the-koreatown-bar-koreatown",
    "name": "The Koreatown Bar",
    "neighborhood": "Koreatown",
    "cuisine": "Vietnamese",
    "category": "Taco Stand",
    "buzzFactor": "Reddit r/FoodLosAngeles",
    "michelinStatus": null,
    "hook": "Filet mignon pho",
    "address": "5396 Street Ave",
    "city": "la",
    "location": {
      "lat": 34.0768945,
      "lng": -118.3440579
    }
  },
  {
    "id": "northern-thai-food-club-arts-district-outpost-arts-district",
    "name": "Northern Thai Food Club (Arts District Outpost)",
    "neighborhood": "Arts District",
    "cuisine": "Japanese",
    "category": "Fine Dining",
    "buzzFactor": "Michelin Guide Selection",
    "michelinStatus": "Recommended",
    "hook": "Uni & scallop omakase piece",
    "address": "6870 Street Ave",
    "city": "la",
    "location": {
      "lat": 34.0768945,
      "lng": -118.3440579
    }
  },
  {
    "id": "the-alhambra-diner-alhambra",
    "name": "The Alhambra Diner",
    "neighborhood": "Alhambra",
    "cuisine": "Mexican",
    "category": "Diner",
    "buzzFactor": "TimeOut LA",
    "michelinStatus": null,
    "hook": "Sweet potato taquitos",
    "address": "7342 Street Ave",
    "city": "la",
    "location": {
      "lat": 34.0768945,
      "lng": -118.3440579
    }
  },
  {
    "id": "the-pasadena-bar-pasadena",
    "name": "The Pasadena Bar",
    "neighborhood": "Pasadena",
    "cuisine": "Mexican",
    "category": "Deli",
    "buzzFactor": "Infatuation LA",
    "michelinStatus": null,
    "hook": "Sweet potato taquitos",
    "address": "7278 Street Ave",
    "city": "la",
    "location": {
      "lat": 34.0768945,
      "lng": -118.3440579
    }
  },
  {
    "id": "asanebo-arts-district-outpost-arts-district",
    "name": "Asanebo (Arts District Outpost)",
    "neighborhood": "Arts District",
    "cuisine": "Chinese / Sichuan",
    "category": "Fine Dining",
    "buzzFactor": "Michelin Guide Selection",
    "michelinStatus": "Recommended",
    "hook": "Spicy cumin lamb",
    "address": "4020 Street Ave",
    "city": "la",
    "location": {
      "lat": 34.0768945,
      "lng": -118.3440579
    }
  },
  {
    "id": "the-pasadena-kitchen-pasadena",
    "name": "The Pasadena Kitchen",
    "neighborhood": "Pasadena",
    "cuisine": "Italian",
    "category": "Fine Dining",
    "buzzFactor": "TimeOut LA",
    "michelinStatus": null,
    "hook": "Truffle mushroom gnocchi",
    "address": "3781 Street Ave",
    "city": "la",
    "location": {
      "lat": 34.0768945,
      "lng": -118.3440579
    }
  },
  {
    "id": "the-arts-district-eatery-no-143-arts-district",
    "name": "The Arts District Eatery No. 143",
    "neighborhood": "Arts District",
    "cuisine": "Japanese",
    "category": "Casual Trendy",
    "buzzFactor": "Infatuation LA",
    "michelinStatus": null,
    "hook": "Uni & scallop omakase piece",
    "address": "4881 Street Ave",
    "city": "la",
    "location": {
      "lat": 34.0768945,
      "lng": -118.3440579
    }
  },
  {
    "id": "dan-modern-chinese-long-beach-outpost-long-beach",
    "name": "Dan Modern Chinese (Long Beach Outpost)",
    "neighborhood": "Long Beach",
    "cuisine": "Vietnamese",
    "category": "Gastropub",
    "buzzFactor": "TimeOut LA",
    "michelinStatus": null,
    "hook": "Garlic noodles with shrimp",
    "address": "4093 Street Ave",
    "city": "la",
    "location": {
      "lat": 34.0768945,
      "lng": -118.3440579
    }
  },
  {
    "id": "the-santa-monica-table-no-145-santa-monica",
    "name": "The Santa Monica Table No. 145",
    "neighborhood": "Santa Monica",
    "cuisine": "Chinese / Sichuan",
    "category": "Gastropub",
    "buzzFactor": "Michelin Guide Selection",
    "michelinStatus": "Recommended",
    "hook": "Mapo tofu",
    "address": "2336 Street Ave",
    "city": "la",
    "location": {
      "lat": 34.0768945,
      "lng": -118.3440579
    }
  },
  {
    "id": "the-hollywood-bar-no-146-hollywood",
    "name": "The Hollywood Bar No. 146",
    "neighborhood": "Hollywood",
    "cuisine": "Japanese",
    "category": "Gastropub",
    "buzzFactor": "Michelin Guide Selection",
    "michelinStatus": "Recommended",
    "hook": "Tonkotsu black garlic ramen",
    "address": "142 Street Ave",
    "city": "la",
    "location": {
      "lat": 33.9029314,
      "lng": -118.2873795
    }
  },
  {
    "id": "luv2eat-thai-long-beach-outpost-long-beach",
    "name": "Luv2eat Thai (Long Beach Outpost)",
    "neighborhood": "Long Beach",
    "cuisine": "Thai",
    "category": "Taco Stand",
    "buzzFactor": "Infatuation LA",
    "michelinStatus": null,
    "hook": "Pad see ew with crispy pork",
    "address": "8924 Street Ave",
    "city": "la",
    "location": {
      "lat": 34.0768945,
      "lng": -118.3440579
    }
  },
  {
    "id": "the-pasadena-eatery-pasadena",
    "name": "The Pasadena Eatery",
    "neighborhood": "Pasadena",
    "cuisine": "Chinese / Sichuan",
    "category": "Diner",
    "buzzFactor": "Michelin Guide Selection",
    "michelinStatus": "Bib Gourmand",
    "hook": "Dan dan hand-pulled noodles",
    "address": "7560 Street Ave",
    "city": "la",
    "location": {
      "lat": 34.0768945,
      "lng": -118.3440579
    }
  },
  {
    "id": "the-alhambra-bistro-no-149-alhambra",
    "name": "The Alhambra Bistro No. 149",
    "neighborhood": "Alhambra",
    "cuisine": "American Contemporary",
    "category": "Breakfast Spot",
    "buzzFactor": "TimeOut LA",
    "michelinStatus": null,
    "hook": "Wood-grilled heritage pork chop",
    "address": "6830 Street Ave",
    "city": "la",
    "location": {
      "lat": 34.0768945,
      "lng": -118.3440579
    }
  },
  {
    "id": "found-oyster-culver-city-outpost-culver-city",
    "name": "Found Oyster (Culver City Outpost)",
    "neighborhood": "Culver City",
    "cuisine": "Mexican",
    "category": "Taco Stand",
    "buzzFactor": "TimeOut LA",
    "michelinStatus": null,
    "hook": "Asada tlayuda",
    "address": "2592 Street Ave",
    "city": "la",
    "location": {
      "lat": 34.0768945,
      "lng": -118.3440579
    }
  },
  {
    "id": "the-pasadena-bar-no-151-pasadena",
    "name": "The Pasadena Bar No. 151",
    "neighborhood": "Pasadena",
    "cuisine": "Chinese / Sichuan",
    "category": "Bar / Lounge",
    "buzzFactor": "Michelin Guide Selection",
    "michelinStatus": "Recommended",
    "hook": "Spicy cumin lamb",
    "address": "1744 Street Ave",
    "city": "la",
    "location": {
      "lat": 34.0768945,
      "lng": -118.3440579
    }
  },
  {
    "id": "the-downtown-la-eatery-no-152-downtown-la",
    "name": "The Downtown LA Eatery No. 152",
    "neighborhood": "Downtown LA",
    "cuisine": "Chinese / Sichuan",
    "category": "Taco Stand",
    "buzzFactor": "Infatuation LA",
    "michelinStatus": null,
    "hook": "Spicy cumin lamb",
    "address": "2629 Street Ave",
    "city": "la",
    "location": {
      "lat": 34.0768945,
      "lng": -118.3440579
    }
  },
  {
    "id": "cassia-hollywood-outpost-hollywood",
    "name": "Cassia (Hollywood Outpost)",
    "neighborhood": "Hollywood",
    "cuisine": "Japanese",
    "category": "Deli",
    "buzzFactor": "Michelin Guide Selection",
    "michelinStatus": "Recommended",
    "hook": "Uni & scallop omakase piece",
    "address": "6612 Street Ave",
    "city": "la",
    "location": {
      "lat": 34.0768945,
      "lng": -118.3440579
    }
  },
  {
    "id": "the-hollywood-house-hollywood",
    "name": "The Hollywood House",
    "neighborhood": "Hollywood",
    "cuisine": "Japanese",
    "category": "Gastropub",
    "buzzFactor": "TimeOut LA",
    "michelinStatus": null,
    "hook": "Tonkotsu black garlic ramen",
    "address": "8964 Street Ave",
    "city": "la",
    "location": {
      "lat": 34.0768945,
      "lng": -118.3440579
    }
  },
  {
    "id": "the-arts-district-bistro-no-155-arts-district",
    "name": "The Arts District Bistro No. 155",
    "neighborhood": "Arts District",
    "cuisine": "Mexican",
    "category": "Breakfast Spot",
    "buzzFactor": "Reddit r/FoodLosAngeles",
    "michelinStatus": null,
    "hook": "Birria tacos with consommé",
    "address": "1580 Street Ave",
    "city": "la",
    "location": {
      "lat": 34.0768945,
      "lng": -118.3440579
    }
  },
  {
    "id": "cassia-glendale-outpost-glendale",
    "name": "Cassia (Glendale Outpost)",
    "neighborhood": "Glendale",
    "cuisine": "French Bistro",
    "category": "Casual Trendy",
    "buzzFactor": "Infatuation LA",
    "michelinStatus": null,
    "hook": "Steak frites with peppercorn sauce",
    "address": "5006 Street Ave",
    "city": "la",
    "location": {
      "lat": 34.0768945,
      "lng": -118.3440579
    }
  },
  {
    "id": "the-west-hollywood-bar-west-hollywood",
    "name": "The West Hollywood Bar",
    "neighborhood": "West Hollywood",
    "cuisine": "Mexican",
    "category": "Diner",
    "buzzFactor": "Eater LA Hot List",
    "michelinStatus": null,
    "hook": "Birria tacos with consommé",
    "address": "5973 Street Ave",
    "city": "la",
    "location": {
      "lat": 34.0768945,
      "lng": -118.3440579
    }
  },
  {
    "id": "the-santa-monica-eatery-no-158-santa-monica",
    "name": "The Santa Monica Eatery No. 158",
    "neighborhood": "Santa Monica",
    "cuisine": "American Contemporary",
    "category": "Bar / Lounge",
    "buzzFactor": "Michelin Guide Selection",
    "michelinStatus": "Recommended",
    "hook": "Hot honey chicken biscuit",
    "address": "9372 Street Ave",
    "city": "la",
    "location": {
      "lat": 34.0768945,
      "lng": -118.3440579
    }
  },
  {
    "id": "kazunori-koreatown-outpost-koreatown",
    "name": "KazuNori (Koreatown Outpost)",
    "neighborhood": "Koreatown",
    "cuisine": "Italian",
    "category": "Bar / Lounge",
    "buzzFactor": "Michelin Guide Selection",
    "michelinStatus": "Recommended",
    "hook": "Wood-fired Margherita",
    "address": "6367 Street Ave",
    "city": "la",
    "location": {
      "lat": 34.0768945,
      "lng": -118.3440579
    }
  },
  {
    "id": "the-alhambra-bistro-no-160-alhambra",
    "name": "The Alhambra Bistro No. 160",
    "neighborhood": "Alhambra",
    "cuisine": "Middle Eastern",
    "category": "Taco Stand",
    "buzzFactor": "Infatuation LA",
    "michelinStatus": null,
    "hook": "Chicken shawarma plate",
    "address": "7655 Street Ave",
    "city": "la",
    "location": {
      "lat": 34.0768945,
      "lng": -118.3440579
    }
  },
  {
    "id": "the-arts-district-house-no-161-arts-district",
    "name": "The Arts District House No. 161",
    "neighborhood": "Arts District",
    "cuisine": "Thai",
    "category": "Deli",
    "buzzFactor": "Eater LA Hot List",
    "michelinStatus": null,
    "hook": "Green papaya salad with salted crab",
    "address": "7722 Street Ave",
    "city": "la",
    "location": {
      "lat": 34.0768945,
      "lng": -118.3440579
    }
  },
  {
    "id": "kang-hodong-baekjeong-glendale-outpost-glendale",
    "name": "Kang Hodong Baekjeong (Glendale Outpost)",
    "neighborhood": "Glendale",
    "cuisine": "Thai",
    "category": "Casual Trendy",
    "buzzFactor": "Reddit r/FoodLosAngeles",
    "michelinStatus": null,
    "hook": "Crab fried rice",
    "address": "5001 Street Ave",
    "city": "la",
    "location": {
      "lat": 34.0768945,
      "lng": -118.3440579
    }
  },
  {
    "id": "the-long-beach-bistro-no-163-long-beach",
    "name": "The Long Beach Bistro No. 163",
    "neighborhood": "Long Beach",
    "cuisine": "French Bistro",
    "category": "Taco Stand",
    "buzzFactor": "Reddit r/FoodLosAngeles",
    "michelinStatus": null,
    "hook": "Classic escargot",
    "address": "6402 Street Ave",
    "city": "la",
    "location": {
      "lat": 34.0768945,
      "lng": -118.3440579
    }
  },
  {
    "id": "the-sawtelle-bar-no-164-sawtelle",
    "name": "The Sawtelle Bar No. 164",
    "neighborhood": "Sawtelle",
    "cuisine": "Chinese / Sichuan",
    "category": "Breakfast Spot",
    "buzzFactor": "Michelin Guide Selection",
    "michelinStatus": "Bib Gourmand",
    "hook": "Spicy cumin lamb",
    "address": "9517 Street Ave",
    "city": "la",
    "location": {
      "lat": 34.0768945,
      "lng": -118.3440579
    }
  },
  {
    "id": "canter-s-deli-long-beach-outpost-long-beach",
    "name": "Canter's Deli (Long Beach Outpost)",
    "neighborhood": "Long Beach",
    "cuisine": "Thai",
    "category": "Fine Dining",
    "buzzFactor": "TimeOut LA",
    "michelinStatus": null,
    "hook": "Pad see ew with crispy pork",
    "address": "232 Street Ave",
    "city": "la",
    "location": {
      "lat": 33.8149602,
      "lng": -118.3251016
    }
  },
  {
    "id": "the-long-beach-house-no-166-long-beach",
    "name": "The Long Beach House No. 166",
    "neighborhood": "Long Beach",
    "cuisine": "Middle Eastern",
    "category": "Taco Stand",
    "buzzFactor": "Reddit r/FoodLosAngeles",
    "michelinStatus": null,
    "hook": "Fluffy pita with spicy hummus",
    "address": "3870 Street Ave",
    "city": "la",
    "location": {
      "lat": 34.0768945,
      "lng": -118.3440579
    }
  },
  {
    "id": "the-arts-district-table-no-167-arts-district",
    "name": "The Arts District Table No. 167",
    "neighborhood": "Arts District",
    "cuisine": "Middle Eastern",
    "category": "Breakfast Spot",
    "buzzFactor": "Infatuation LA",
    "michelinStatus": null,
    "hook": "Falafel wrap with tahini",
    "address": "4206 Street Ave",
    "city": "la",
    "location": {
      "lat": 34.0768945,
      "lng": -118.3440579
    }
  },
  {
    "id": "sonoratown-venice-outpost-venice",
    "name": "Sonoratown (Venice Outpost)",
    "neighborhood": "Venice",
    "cuisine": "Italian",
    "category": "Fine Dining",
    "buzzFactor": "TimeOut LA",
    "michelinStatus": null,
    "hook": "Cacio e pepe in a cheese wheel",
    "address": "9595 Street Ave",
    "city": "la",
    "location": {
      "lat": 34.0768945,
      "lng": -118.3440579
    }
  },
  {
    "id": "the-venice-diner-no-169-venice",
    "name": "The Venice Diner No. 169",
    "neighborhood": "Venice",
    "cuisine": "American Contemporary",
    "category": "Casual Trendy",
    "buzzFactor": "Reddit r/FoodLosAngeles",
    "michelinStatus": null,
    "hook": "Wood-grilled heritage pork chop",
    "address": "6907 Street Ave",
    "city": "la",
    "location": {
      "lat": 34.0768945,
      "lng": -118.3440579
    }
  },
  {
    "id": "the-west-hollywood-bar-no-170-west-hollywood",
    "name": "The West Hollywood Bar No. 170",
    "neighborhood": "West Hollywood",
    "cuisine": "Italian",
    "category": "Bar / Lounge",
    "buzzFactor": "Michelin Guide Selection",
    "michelinStatus": "Recommended",
    "hook": "Wood-fired Margherita",
    "address": "8797 Street Ave",
    "city": "la",
    "location": {
      "lat": 34.0768945,
      "lng": -118.3440579
    }
  },
  {
    "id": "asanebo-venice-outpost-venice",
    "name": "Asanebo (Venice Outpost)",
    "neighborhood": "Venice",
    "cuisine": "Vietnamese",
    "category": "Bar / Lounge",
    "buzzFactor": "TimeOut LA",
    "michelinStatus": null,
    "hook": "Garlic noodles with shrimp",
    "address": "4935 Street Ave",
    "city": "la",
    "location": {
      "lat": 34.0768945,
      "lng": -118.3440579
    }
  },
  {
    "id": "the-koreatown-house-koreatown",
    "name": "The Koreatown House",
    "neighborhood": "Koreatown",
    "cuisine": "American Contemporary",
    "category": "Taco Stand",
    "buzzFactor": "Infatuation LA",
    "michelinStatus": null,
    "hook": "Dry-aged smashburger",
    "address": "3796 Street Ave",
    "city": "la",
    "location": {
      "lat": 34.0768945,
      "lng": -118.3440579
    }
  },
  {
    "id": "the-west-hollywood-kitchen-west-hollywood",
    "name": "The West Hollywood Kitchen",
    "neighborhood": "West Hollywood",
    "cuisine": "French Bistro",
    "category": "Casual Trendy",
    "buzzFactor": "TimeOut LA",
    "michelinStatus": null,
    "hook": "Classic escargot",
    "address": "4432 Street Ave",
    "city": "la",
    "location": {
      "lat": 34.0768945,
      "lng": -118.3440579
    }
  },
  {
    "id": "kang-hodong-baekjeong-hollywood-outpost-hollywood",
    "name": "Kang Hodong Baekjeong (Hollywood Outpost)",
    "neighborhood": "Hollywood",
    "cuisine": "Vietnamese",
    "category": "Taco Stand",
    "buzzFactor": "Reddit r/FoodLosAngeles",
    "michelinStatus": null,
    "hook": "Filet mignon pho",
    "address": "6342 Street Ave",
    "city": "la",
    "location": {
      "lat": 34.0768945,
      "lng": -118.3440579
    }
  },
  {
    "id": "the-glendale-table-glendale",
    "name": "The Glendale Table",
    "neighborhood": "Glendale",
    "cuisine": "American Contemporary",
    "category": "Breakfast Spot",
    "buzzFactor": "Eater LA Hot List",
    "michelinStatus": null,
    "hook": "Dry-aged smashburger",
    "address": "9298 Street Ave",
    "city": "la",
    "location": {
      "lat": 34.0768945,
      "lng": -118.3440579
    }
  },
  {
    "id": "the-arts-district-diner-no-176-arts-district",
    "name": "The Arts District Diner No. 176",
    "neighborhood": "Arts District",
    "cuisine": "American Contemporary",
    "category": "Casual Trendy",
    "buzzFactor": "TimeOut LA",
    "michelinStatus": null,
    "hook": "Wood-grilled heritage pork chop",
    "address": "5051 Street Ave",
    "city": "la",
    "location": {
      "lat": 34.0768945,
      "lng": -118.3440579
    }
  },
  {
    "id": "cole-s-french-dip-downtown-la-outpost-no-177-downtown-la",
    "name": "Cole's French Dip (Downtown LA Outpost) No. 177",
    "neighborhood": "Downtown LA",
    "cuisine": "French Bistro",
    "category": "Bar / Lounge",
    "buzzFactor": "Eater LA Hot List",
    "michelinStatus": null,
    "hook": "Steak frites with peppercorn sauce",
    "address": "8171 Street Ave",
    "city": "la",
    "location": {
      "lat": 34.0768945,
      "lng": -118.3440579
    }
  },
  {
    "id": "the-pasadena-eatery-no-178-pasadena",
    "name": "The Pasadena Eatery No. 178",
    "neighborhood": "Pasadena",
    "cuisine": "Japanese",
    "category": "Breakfast Spot",
    "buzzFactor": "Infatuation LA",
    "michelinStatus": null,
    "hook": "A5 Wagyu handroll",
    "address": "7532 Street Ave",
    "city": "la",
    "location": {
      "lat": 34.0768945,
      "lng": -118.3440579
    }
  },
  {
    "id": "the-sawtelle-house-sawtelle",
    "name": "The Sawtelle House",
    "neighborhood": "Sawtelle",
    "cuisine": "American Contemporary",
    "category": "Bar / Lounge",
    "buzzFactor": "Eater LA Hot List",
    "michelinStatus": null,
    "hook": "Hot honey chicken biscuit",
    "address": "8117 Street Ave",
    "city": "la",
    "location": {
      "lat": 34.0768945,
      "lng": -118.3440579
    }
  },
  {
    "id": "gjusta-downtown-la-outpost-downtown-la",
    "name": "Gjusta (Downtown LA Outpost)",
    "neighborhood": "Downtown LA",
    "cuisine": "Middle Eastern",
    "category": "Deli",
    "buzzFactor": "Reddit r/FoodLosAngeles",
    "michelinStatus": null,
    "hook": "Lamb kofta kebab",
    "address": "7364 Street Ave",
    "city": "la",
    "location": {
      "lat": 34.0768945,
      "lng": -118.3440579
    }
  },
  {
    "id": "the-koreatown-table-no-181-koreatown",
    "name": "The Koreatown Table No. 181",
    "neighborhood": "Koreatown",
    "cuisine": "Chinese / Sichuan",
    "category": "Diner",
    "buzzFactor": "Reddit r/FoodLosAngeles",
    "michelinStatus": null,
    "hook": "Mapo tofu",
    "address": "5976 Street Ave",
    "city": "la",
    "location": {
      "lat": 34.0768945,
      "lng": -118.3440579
    }
  },